[{"code":"01001","nom":"L'Abergement-Clémenciat","centre":{"type":"Point","coordinates":[4.926,46.1567]}},{"code":"01002","nom":"L'Abergement-de-Varey","centre":{"type":"Point","coordinates":[5.4284,46.01]}},{"code":"01004","nom":"Ambérieu-en-Bugey","centre":{"type":"Point","coordinates":[5.3775,45.9594]}},{"code":"01005","nom":"Ambérieux-en-Dombes","centre":{"type":"Point","coordinates":[4.9113,45.999]}},{"code":"01006","nom":"Ambléon","centre":{"type":"Point","coordinates":[5.6027,45.7481]}},{"code":"01007","nom":"Ambronay","centre":{"type":"Point","coordinates":[5.3745,45.9991]}},{"code":"01008","nom":"Ambutrix","centre":{"type":"Point","coordinates":[5.3334,45.936]}},{"code":"01009","nom":"Andert-et-Condon","centre":{"type":"Point","coordinates":[5.6579,45.7863]}},{"code":"01010","nom":"Anglefort","centre":{"type":"Point","coordinates":[5.7898,45.9218]}},{"code":"01011","nom":"Apremont","centre":{"type":"Point","coordinates":[5.6644,46.2085]}},{"code":"01012","nom":"Aranc","centre":{"type":"Point","coordinates":[5.501,46.0053]}},{"code":"01013","nom":"Arandas","centre":{"type":"Point","coordinates":[5.4961,45.8902]}},{"code":"01014","nom":"Arbent","centre":{"type":"Point","coordinates":[5.6884,46.2823]}},{"code":"01015","nom":"Arboys en Bugey","centre":{"type":"Point","coordinates":[5.6462,45.7192]}},{"code":"01016","nom":"Arbigny","centre":{"type":"Point","coordinates":[4.967,46.4768]}},{"code":"01017","nom":"Argis","centre":{"type":"Point","coordinates":[5.4835,45.9359]}},{"code":"01019","nom":"Armix","centre":{"type":"Point","coordinates":[5.5749,45.8545]}},{"code":"01021","nom":"Ars-sur-Formans","centre":{"type":"Point","coordinates":[4.8194,45.9954]}},{"code":"01022","nom":"Artemare","centre":{"type":"Point","coordinates":[5.692,45.8693]}},{"code":"01023","nom":"Asnières-sur-Saône","centre":{"type":"Point","coordinates":[4.8861,46.387]}},{"code":"01024","nom":"Attignat","centre":{"type":"Point","coordinates":[5.1844,46.2873]}},{"code":"01025","nom":"Bâgé-Dommartin","centre":{"type":"Point","coordinates":[4.9607,46.3243]}},{"code":"01026","nom":"Bâgé-le-Châtel","centre":{"type":"Point","coordinates":[4.9297,46.3076]}},{"code":"01027","nom":"Balan","centre":{"type":"Point","coordinates":[5.1024,45.8349]}},{"code":"01028","nom":"Baneins","centre":{"type":"Point","coordinates":[4.905,46.1192]}},{"code":"01029","nom":"Beaupont","centre":{"type":"Point","coordinates":[5.2615,46.4264]}},{"code":"01030","nom":"Beauregard","centre":{"type":"Point","coordinates":[4.757,46.0011]}},{"code":"01031","nom":"Bellignat","centre":{"type":"Point","coordinates":[5.6425,46.2401]}},{"code":"01032","nom":"Béligneux","centre":{"type":"Point","coordinates":[5.1328,45.8625]}},{"code":"01033","nom":"Valserhône","centre":{"type":"Point","coordinates":[5.7936,46.1227]}},{"code":"01034","nom":"Belley","centre":{"type":"Point","coordinates":[5.6803,45.7457]}},{"code":"01035","nom":"Belleydoux","centre":{"type":"Point","coordinates":[5.7737,46.2567]}},{"code":"01036","nom":"Valromey-sur-Séran","centre":{"type":"Point","coordinates":[5.671,45.9188]}},{"code":"01037","nom":"Bénonces","centre":{"type":"Point","coordinates":[5.4785,45.8355]}},{"code":"01038","nom":"Bény","centre":{"type":"Point","coordinates":[5.2839,46.3213]}},{"code":"01039","nom":"Béon","centre":{"type":"Point","coordinates":[5.7452,45.8596]}},{"code":"01040","nom":"Béréziat","centre":{"type":"Point","coordinates":[5.0409,46.3686]}},{"code":"01041","nom":"Bettant","centre":{"type":"Point","coordinates":[5.3658,45.9387]}},{"code":"01042","nom":"Bey","centre":{"type":"Point","coordinates":[4.8448,46.2183]}},{"code":"01043","nom":"Beynost","centre":{"type":"Point","coordinates":[4.9972,45.8397]}},{"code":"01044","nom":"Billiat","centre":{"type":"Point","coordinates":[5.7743,46.0778]}},{"code":"01045","nom":"Birieux","centre":{"type":"Point","coordinates":[5.0391,45.9563]}},{"code":"01046","nom":"Biziat","centre":{"type":"Point","coordinates":[4.9448,46.2283]}},{"code":"01047","nom":"Blyes","centre":{"type":"Point","coordinates":[5.253,45.8432]}},{"code":"01049","nom":"La Boisse","centre":{"type":"Point","coordinates":[5.0275,45.8481]}},{"code":"01050","nom":"Boissey","centre":{"type":"Point","coordinates":[4.9984,46.3709]}},{"code":"01051","nom":"Bolozon","centre":{"type":"Point","coordinates":[5.4661,46.1963]}},{"code":"01052","nom":"Bouligneux","centre":{"type":"Point","coordinates":[5.0048,46.0221]}},{"code":"01053","nom":"Bourg-en-Bresse","centre":{"type":"Point","coordinates":[5.2444,46.2062]}},{"code":"01054","nom":"Bourg-Saint-Christophe","centre":{"type":"Point","coordinates":[5.1382,45.8884]}},{"code":"01056","nom":"Boyeux-Saint-Jérôme","centre":{"type":"Point","coordinates":[5.4581,46.0352]}},{"code":"01057","nom":"Boz","centre":{"type":"Point","coordinates":[4.9145,46.4052]}},{"code":"01058","nom":"Brégnier-Cordon","centre":{"type":"Point","coordinates":[5.622,45.6466]}},{"code":"01060","nom":"Brénod","centre":{"type":"Point","coordinates":[5.6249,46.0755]}},{"code":"01061","nom":"Brens","centre":{"type":"Point","coordinates":[5.6938,45.7182]}},{"code":"01062","nom":"Bressolles","centre":{"type":"Point","coordinates":[5.0985,45.8726]}},{"code":"01063","nom":"Brion","centre":{"type":"Point","coordinates":[5.5447,46.165]}},{"code":"01064","nom":"Briord","centre":{"type":"Point","coordinates":[5.4922,45.7795]}},{"code":"01065","nom":"Buellas","centre":{"type":"Point","coordinates":[5.1459,46.2112]}},{"code":"01066","nom":"La Burbanche","centre":{"type":"Point","coordinates":[5.5444,45.8653]}},{"code":"01067","nom":"Ceignes","centre":{"type":"Point","coordinates":[5.4938,46.1233]}},{"code":"01068","nom":"Cerdon","centre":{"type":"Point","coordinates":[5.4726,46.0755]}},{"code":"01069","nom":"Certines","centre":{"type":"Point","coordinates":[5.2653,46.1326]}},{"code":"01071","nom":"Cessy","centre":{"type":"Point","coordinates":[6.0741,46.3171]}},{"code":"01072","nom":"Ceyzériat","centre":{"type":"Point","coordinates":[5.3176,46.1842]}},{"code":"01073","nom":"Ceyzérieu","centre":{"type":"Point","coordinates":[5.7132,45.8347]}},{"code":"01074","nom":"Chalamont","centre":{"type":"Point","coordinates":[5.1735,46.0041]}},{"code":"01075","nom":"Chaleins","centre":{"type":"Point","coordinates":[4.7989,46.0348]}},{"code":"01076","nom":"Chaley","centre":{"type":"Point","coordinates":[5.5454,45.9551]}},{"code":"01077","nom":"Challes-la-Montagne","centre":{"type":"Point","coordinates":[5.4599,46.1235]}},{"code":"01078","nom":"Challex","centre":{"type":"Point","coordinates":[5.969,46.1747]}},{"code":"01079","nom":"Champagne-en-Valromey","centre":{"type":"Point","coordinates":[5.6934,45.9322]}},{"code":"01080","nom":"Champdor-Corcelles","centre":{"type":"Point","coordinates":[5.574,46.0366]}},{"code":"01081","nom":"Champfromier","centre":{"type":"Point","coordinates":[5.8251,46.22]}},{"code":"01082","nom":"Chanay","centre":{"type":"Point","coordinates":[5.7785,46.0046]}},{"code":"01083","nom":"Chaneins","centre":{"type":"Point","coordinates":[4.8553,46.0879]}},{"code":"01084","nom":"Chanoz-Châtenay","centre":{"type":"Point","coordinates":[5.0261,46.1879]}},{"code":"01085","nom":"La Chapelle-du-Châtelard","centre":{"type":"Point","coordinates":[5.0234,46.0715]}},{"code":"01087","nom":"Charix","centre":{"type":"Point","coordinates":[5.6829,46.19]}},{"code":"01088","nom":"Charnoz-sur-Ain","centre":{"type":"Point","coordinates":[5.2234,45.8762]}},{"code":"01089","nom":"Château-Gaillard","centre":{"type":"Point","coordinates":[5.3027,45.9629]}},{"code":"01090","nom":"Châtenay","centre":{"type":"Point","coordinates":[5.2069,46.0272]}},{"code":"01092","nom":"Châtillon-la-Palud","centre":{"type":"Point","coordinates":[5.2401,45.9732]}},{"code":"01093","nom":"Châtillon-sur-Chalaronne","centre":{"type":"Point","coordinates":[4.9579,46.1232]}},{"code":"01094","nom":"Chavannes-sur-Reyssouze","centre":{"type":"Point","coordinates":[5.0015,46.4369]}},{"code":"01095","nom":"Nivigne et Suran","centre":{"type":"Point","coordinates":[5.4286,46.2864]}},{"code":"01096","nom":"Chaveyriat","centre":{"type":"Point","coordinates":[5.0496,46.2029]}},{"code":"01098","nom":"Chazey-Bons","centre":{"type":"Point","coordinates":[5.6721,45.8016]}},{"code":"01099","nom":"Chazey-sur-Ain","centre":{"type":"Point","coordinates":[5.2553,45.898]}},{"code":"01100","nom":"Cheignieu-la-Balme","centre":{"type":"Point","coordinates":[5.6013,45.8222]}},{"code":"01101","nom":"Chevillard","centre":{"type":"Point","coordinates":[5.5792,46.1089]}},{"code":"01102","nom":"Chevroux","centre":{"type":"Point","coordinates":[4.9651,46.3817]}},{"code":"01103","nom":"Chevry","centre":{"type":"Point","coordinates":[6.0451,46.2841]}},{"code":"01104","nom":"Chézery-Forens","centre":{"type":"Point","coordinates":[5.8714,46.2238]}},{"code":"01105","nom":"Civrieux","centre":{"type":"Point","coordinates":[4.8846,45.9181]}},{"code":"01106","nom":"Cize","centre":{"type":"Point","coordinates":[5.4508,46.1993]}},{"code":"01107","nom":"Cleyzieu","centre":{"type":"Point","coordinates":[5.4311,45.9003]}},{"code":"01108","nom":"Coligny","centre":{"type":"Point","coordinates":[5.3284,46.386]}},{"code":"01109","nom":"Collonges","centre":{"type":"Point","coordinates":[5.9044,46.1423]}},{"code":"01110","nom":"Colomieu","centre":{"type":"Point","coordinates":[5.6277,45.7378]}},{"code":"01111","nom":"Conand","centre":{"type":"Point","coordinates":[5.4719,45.8903]}},{"code":"01112","nom":"Condamine","centre":{"type":"Point","coordinates":[5.5583,46.105]}},{"code":"01113","nom":"Condeissiat","centre":{"type":"Point","coordinates":[5.0886,46.1516]}},{"code":"01114","nom":"Confort","centre":{"type":"Point","coordinates":[5.827,46.1542]}},{"code":"01115","nom":"Confrançon","centre":{"type":"Point","coordinates":[5.0645,46.2681]}},{"code":"01116","nom":"Contrevoz","centre":{"type":"Point","coordinates":[5.6225,45.8019]}},{"code":"01117","nom":"Conzieu","centre":{"type":"Point","coordinates":[5.6074,45.7263]}},{"code":"01118","nom":"Corbonod","centre":{"type":"Point","coordinates":[5.7879,45.9712]}},{"code":"01121","nom":"Corlier","centre":{"type":"Point","coordinates":[5.4979,46.0339]}},{"code":"01123","nom":"Cormoranche-sur-Saône","centre":{"type":"Point","coordinates":[4.8318,46.2373]}},{"code":"01124","nom":"Cormoz","centre":{"type":"Point","coordinates":[5.2229,46.4349]}},{"code":"01125","nom":"Corveissiat","centre":{"type":"Point","coordinates":[5.4671,46.2538]}},{"code":"01127","nom":"Courmangoux","centre":{"type":"Point","coordinates":[5.352,46.3271]}},{"code":"01128","nom":"Courtes","centre":{"type":"Point","coordinates":[5.1134,46.4565]}},{"code":"01129","nom":"Crans","centre":{"type":"Point","coordinates":[5.1932,45.9668]}},{"code":"01130","nom":"Bresse Vallons","centre":{"type":"Point","coordinates":[5.1859,46.3273]}},{"code":"01133","nom":"Cressin-Rochefort","centre":{"type":"Point","coordinates":[5.758,45.7818]}},{"code":"01134","nom":"Crottet","centre":{"type":"Point","coordinates":[4.8706,46.2842]}},{"code":"01135","nom":"Crozet","centre":{"type":"Point","coordinates":[6.0045,46.2895]}},{"code":"01136","nom":"Cruzilles-lès-Mépillat","centre":{"type":"Point","coordinates":[4.8751,46.2203]}},{"code":"01138","nom":"Culoz","centre":{"type":"Point","coordinates":[5.7739,45.8565]}},{"code":"01139","nom":"Curciat-Dongalon","centre":{"type":"Point","coordinates":[5.1669,46.4894]}},{"code":"01140","nom":"Curtafond","centre":{"type":"Point","coordinates":[5.1022,46.2736]}},{"code":"01141","nom":"Cuzieu","centre":{"type":"Point","coordinates":[5.678,45.8179]}},{"code":"01142","nom":"Dagneux","centre":{"type":"Point","coordinates":[5.0724,45.858]}},{"code":"01143","nom":"Divonne-les-Bains","centre":{"type":"Point","coordinates":[6.1175,46.3741]}},{"code":"01145","nom":"Dompierre-sur-Veyle","centre":{"type":"Point","coordinates":[5.2167,46.0642]}},{"code":"01146","nom":"Dompierre-sur-Chalaronne","centre":{"type":"Point","coordinates":[4.9005,46.1448]}},{"code":"01147","nom":"Domsure","centre":{"type":"Point","coordinates":[5.2953,46.4244]}},{"code":"01148","nom":"Dortan","centre":{"type":"Point","coordinates":[5.645,46.3154]}},{"code":"01149","nom":"Douvres","centre":{"type":"Point","coordinates":[5.3743,45.9848]}},{"code":"01150","nom":"Drom","centre":{"type":"Point","coordinates":[5.3668,46.2219]}},{"code":"01151","nom":"Druillat","centre":{"type":"Point","coordinates":[5.295,46.0681]}},{"code":"01152","nom":"Échallon","centre":{"type":"Point","coordinates":[5.737,46.2242]}},{"code":"01153","nom":"Échenevex","centre":{"type":"Point","coordinates":[6.0254,46.3145]}},{"code":"01155","nom":"Évosges","centre":{"type":"Point","coordinates":[5.4976,45.9566]}},{"code":"01156","nom":"Faramans","centre":{"type":"Point","coordinates":[5.1232,45.9074]}},{"code":"01157","nom":"Fareins","centre":{"type":"Point","coordinates":[4.7675,46.0225]}},{"code":"01158","nom":"Farges","centre":{"type":"Point","coordinates":[5.9216,46.162]}},{"code":"01159","nom":"Feillens","centre":{"type":"Point","coordinates":[4.8882,46.3381]}},{"code":"01160","nom":"Ferney-Voltaire","centre":{"type":"Point","coordinates":[6.1076,46.2547]}},{"code":"01162","nom":"Flaxieu","centre":{"type":"Point","coordinates":[5.7375,45.8103]}},{"code":"01163","nom":"Foissiat","centre":{"type":"Point","coordinates":[5.1872,46.379]}},{"code":"01165","nom":"Francheleins","centre":{"type":"Point","coordinates":[4.822,46.0719]}},{"code":"01166","nom":"Frans","centre":{"type":"Point","coordinates":[4.7747,45.9915]}},{"code":"01167","nom":"Garnerans","centre":{"type":"Point","coordinates":[4.8343,46.2139]}},{"code":"01169","nom":"Genouilleux","centre":{"type":"Point","coordinates":[4.8011,46.1225]}},{"code":"01170","nom":"Béard-Géovreissiat","centre":{"type":"Point","coordinates":[5.5487,46.1913]}},{"code":"01171","nom":"Géovreisset","centre":{"type":"Point","coordinates":[5.6172,46.2551]}},{"code":"01173","nom":"Gex","centre":{"type":"Point","coordinates":[6.0475,46.3425]}},{"code":"01174","nom":"Giron","centre":{"type":"Point","coordinates":[5.7899,46.2198]}},{"code":"01175","nom":"Gorrevod","centre":{"type":"Point","coordinates":[4.9557,46.4156]}},{"code":"01177","nom":"Grand-Corent","centre":{"type":"Point","coordinates":[5.4369,46.2117]}},{"code":"01179","nom":"Grièges","centre":{"type":"Point","coordinates":[4.8515,46.2673]}},{"code":"01180","nom":"Grilly","centre":{"type":"Point","coordinates":[6.1179,46.3285]}},{"code":"01181","nom":"Groissiat","centre":{"type":"Point","coordinates":[5.621,46.2234]}},{"code":"01183","nom":"Guéreins","centre":{"type":"Point","coordinates":[4.7842,46.1042]}},{"code":"01184","nom":"Hautecourt-Romanèche","centre":{"type":"Point","coordinates":[5.4274,46.1631]}},{"code":"01185","nom":"Plateau d’Hauteville","centre":{"type":"Point","coordinates":[5.5645,45.9309]}},{"code":"01187","nom":"Haut Valromey","centre":{"type":"Point","coordinates":[5.6773,46.0343]}},{"code":"01188","nom":"Illiat","centre":{"type":"Point","coordinates":[4.893,46.1866]}},{"code":"01189","nom":"Injoux-Génissiat","centre":{"type":"Point","coordinates":[5.7694,46.046]}},{"code":"01190","nom":"Innimond","centre":{"type":"Point","coordinates":[5.5706,45.7909]}},{"code":"01191","nom":"Izenave","centre":{"type":"Point","coordinates":[5.5224,46.0402]}},{"code":"01192","nom":"Izernore","centre":{"type":"Point","coordinates":[5.5524,46.2172]}},{"code":"01193","nom":"Izieu","centre":{"type":"Point","coordinates":[5.6377,45.6532]}},{"code":"01194","nom":"Jassans-Riottier","centre":{"type":"Point","coordinates":[4.7613,45.9787]}},{"code":"01195","nom":"Jasseron","centre":{"type":"Point","coordinates":[5.3153,46.2179]}},{"code":"01196","nom":"Jayat","centre":{"type":"Point","coordinates":[5.113,46.3694]}},{"code":"01197","nom":"Journans","centre":{"type":"Point","coordinates":[5.3362,46.1464]}},{"code":"01198","nom":"Joyeux","centre":{"type":"Point","coordinates":[5.1042,45.9518]}},{"code":"01199","nom":"Jujurieux","centre":{"type":"Point","coordinates":[5.4187,46.0455]}},{"code":"01200","nom":"Labalme","centre":{"type":"Point","coordinates":[5.4888,46.0901]}},{"code":"01202","nom":"Lagnieu","centre":{"type":"Point","coordinates":[5.3411,45.8965]}},{"code":"01203","nom":"Laiz","centre":{"type":"Point","coordinates":[4.9012,46.2477]}},{"code":"01204","nom":"Le Poizat-Lalleyriat","centre":{"type":"Point","coordinates":[5.6967,46.1394]}},{"code":"01206","nom":"Lantenay","centre":{"type":"Point","coordinates":[5.5412,46.056]}},{"code":"01207","nom":"Lapeyrouse","centre":{"type":"Point","coordinates":[4.978,45.9867]}},{"code":"01208","nom":"Lavours","centre":{"type":"Point","coordinates":[5.7751,45.8138]}},{"code":"01209","nom":"Léaz","centre":{"type":"Point","coordinates":[5.8746,46.1114]}},{"code":"01210","nom":"Lélex","centre":{"type":"Point","coordinates":[5.9225,46.2906]}},{"code":"01211","nom":"Lent","centre":{"type":"Point","coordinates":[5.2019,46.1171]}},{"code":"01212","nom":"Lescheroux","centre":{"type":"Point","coordinates":[5.1507,46.4114]}},{"code":"01213","nom":"Leyment","centre":{"type":"Point","coordinates":[5.2994,45.929]}},{"code":"01214","nom":"Leyssard","centre":{"type":"Point","coordinates":[5.4741,46.1612]}},{"code":"01215","nom":"Surjoux-Lhopital","centre":{"type":"Point","coordinates":[5.7786,46.0286]}},{"code":"01216","nom":"Lhuis","centre":{"type":"Point","coordinates":[5.5391,45.7531]}},{"code":"01219","nom":"Lompnas","centre":{"type":"Point","coordinates":[5.5236,45.8125]}},{"code":"01224","nom":"Loyettes","centre":{"type":"Point","coordinates":[5.2081,45.7996]}},{"code":"01225","nom":"Lurcy","centre":{"type":"Point","coordinates":[4.779,46.0642]}},{"code":"01227","nom":"Magnieu","centre":{"type":"Point","coordinates":[5.7217,45.7811]}},{"code":"01228","nom":"Maillat","centre":{"type":"Point","coordinates":[5.5307,46.1177]}},{"code":"01229","nom":"Malafretaz","centre":{"type":"Point","coordinates":[5.1425,46.3283]}},{"code":"01230","nom":"Mantenay-Montlin","centre":{"type":"Point","coordinates":[5.104,46.4303]}},{"code":"01231","nom":"Manziat","centre":{"type":"Point","coordinates":[4.903,46.3612]}},{"code":"01232","nom":"Marboz","centre":{"type":"Point","coordinates":[5.2443,46.3479]}},{"code":"01233","nom":"Marchamp","centre":{"type":"Point","coordinates":[5.5474,45.7757]}},{"code":"01234","nom":"Marignieu","centre":{"type":"Point","coordinates":[5.7168,45.802]}},{"code":"01235","nom":"Marlieux","centre":{"type":"Point","coordinates":[5.0727,46.0532]}},{"code":"01236","nom":"Marsonnas","centre":{"type":"Point","coordinates":[5.0663,46.3407]}},{"code":"01237","nom":"Martignat","centre":{"type":"Point","coordinates":[5.615,46.2093]}},{"code":"01238","nom":"Massieux","centre":{"type":"Point","coordinates":[4.8309,45.9097]}},{"code":"01239","nom":"Massignieu-de-Rives","centre":{"type":"Point","coordinates":[5.755,45.7545]}},{"code":"01240","nom":"Matafelon-Granges","centre":{"type":"Point","coordinates":[5.5301,46.247]}},{"code":"01241","nom":"Meillonnas","centre":{"type":"Point","coordinates":[5.3319,46.2471]}},{"code":"01242","nom":"Mérignat","centre":{"type":"Point","coordinates":[5.441,46.0649]}},{"code":"01243","nom":"Messimy-sur-Saône","centre":{"type":"Point","coordinates":[4.7632,46.0469]}},{"code":"01244","nom":"Meximieux","centre":{"type":"Point","coordinates":[5.1959,45.9111]}},{"code":"01245","nom":"Bohas-Meyriat-Rignat","centre":{"type":"Point","coordinates":[5.3766,46.1417]}},{"code":"01246","nom":"Mézériat","centre":{"type":"Point","coordinates":[5.048,46.241]}},{"code":"01247","nom":"Mijoux","centre":{"type":"Point","coordinates":[6.0042,46.3618]}},{"code":"01248","nom":"Mionnay","centre":{"type":"Point","coordinates":[4.929,45.8994]}},{"code":"01249","nom":"Miribel","centre":{"type":"Point","coordinates":[4.9376,45.8426]}},{"code":"01250","nom":"Misérieux","centre":{"type":"Point","coordinates":[4.8076,45.9759]}},{"code":"01252","nom":"Mogneneins","centre":{"type":"Point","coordinates":[4.8247,46.1437]}},{"code":"01254","nom":"Montagnat","centre":{"type":"Point","coordinates":[5.2766,46.1697]}},{"code":"01255","nom":"Montagnieu","centre":{"type":"Point","coordinates":[5.4626,45.8016]}},{"code":"01257","nom":"Montanges","centre":{"type":"Point","coordinates":[5.7968,46.1681]}},{"code":"01258","nom":"Montceaux","centre":{"type":"Point","coordinates":[4.8028,46.1015]}},{"code":"01259","nom":"Montcet","centre":{"type":"Point","coordinates":[5.1115,46.2203]}},{"code":"01260","nom":"Le Montellier","centre":{"type":"Point","coordinates":[5.0641,45.9244]}},{"code":"01261","nom":"Monthieux","centre":{"type":"Point","coordinates":[4.9436,45.9625]}},{"code":"01262","nom":"Montluel","centre":{"type":"Point","coordinates":[5.0285,45.8891]}},{"code":"01263","nom":"Montmerle-sur-Saône","centre":{"type":"Point","coordinates":[4.7603,46.085]}},{"code":"01264","nom":"Montracol","centre":{"type":"Point","coordinates":[5.1203,46.1851]}},{"code":"01265","nom":"Montréal-la-Cluse","centre":{"type":"Point","coordinates":[5.5899,46.1756]}},{"code":"01266","nom":"Montrevel-en-Bresse","centre":{"type":"Point","coordinates":[5.1106,46.3269]}},{"code":"01267","nom":"Nurieux-Volognat","centre":{"type":"Point","coordinates":[5.524,46.1877]}},{"code":"01268","nom":"Murs-et-Gélignieux","centre":{"type":"Point","coordinates":[5.6531,45.6421]}},{"code":"01269","nom":"Nantua","centre":{"type":"Point","coordinates":[5.6055,46.1556]}},{"code":"01272","nom":"Neuville-les-Dames","centre":{"type":"Point","coordinates":[5.0055,46.1599]}},{"code":"01273","nom":"Neuville-sur-Ain","centre":{"type":"Point","coordinates":[5.3721,46.094]}},{"code":"01274","nom":"Les Neyrolles","centre":{"type":"Point","coordinates":[5.6362,46.133]}},{"code":"01275","nom":"Neyron","centre":{"type":"Point","coordinates":[4.929,45.822]}},{"code":"01276","nom":"Niévroz","centre":{"type":"Point","coordinates":[5.055,45.8236]}},{"code":"01277","nom":"Nivollet-Montgriffon","centre":{"type":"Point","coordinates":[5.46,46.0017]}},{"code":"01279","nom":"Oncieu","centre":{"type":"Point","coordinates":[5.4736,45.9654]}},{"code":"01280","nom":"Ordonnaz","centre":{"type":"Point","coordinates":[5.5395,45.8311]}},{"code":"01281","nom":"Ornex","centre":{"type":"Point","coordinates":[6.094,46.2765]}},{"code":"01282","nom":"Outriaz","centre":{"type":"Point","coordinates":[5.5546,46.0667]}},{"code":"01283","nom":"Oyonnax","centre":{"type":"Point","coordinates":[5.6361,46.27]}},{"code":"01284","nom":"Ozan","centre":{"type":"Point","coordinates":[4.9168,46.388]}},{"code":"01285","nom":"Parcieux","centre":{"type":"Point","coordinates":[4.8311,45.9196]}},{"code":"01286","nom":"Parves et Nattages","centre":{"type":"Point","coordinates":[5.7414,45.7352]}},{"code":"01288","nom":"Péron","centre":{"type":"Point","coordinates":[5.9327,46.187]}},{"code":"01289","nom":"Péronnas","centre":{"type":"Point","coordinates":[5.215,46.1693]}},{"code":"01290","nom":"Pérouges","centre":{"type":"Point","coordinates":[5.1772,45.8884]}},{"code":"01291","nom":"Perrex","centre":{"type":"Point","coordinates":[4.9691,46.2492]}},{"code":"01293","nom":"Peyriat","centre":{"type":"Point","coordinates":[5.5098,46.1478]}},{"code":"01294","nom":"Peyrieu","centre":{"type":"Point","coordinates":[5.678,45.6804]}},{"code":"01295","nom":"Peyzieux-sur-Saône","centre":{"type":"Point","coordinates":[4.8223,46.1244]}},{"code":"01296","nom":"Pirajoux","centre":{"type":"Point","coordinates":[5.2733,46.3864]}},{"code":"01297","nom":"Pizay","centre":{"type":"Point","coordinates":[5.0899,45.8851]}},{"code":"01298","nom":"Plagne","centre":{"type":"Point","coordinates":[5.7245,46.1858]}},{"code":"01299","nom":"Le Plantay","centre":{"type":"Point","coordinates":[5.0937,46.0228]}},{"code":"01301","nom":"Polliat","centre":{"type":"Point","coordinates":[5.1377,46.2466]}},{"code":"01302","nom":"Pollieu","centre":{"type":"Point","coordinates":[5.7477,45.7922]}},{"code":"01303","nom":"Poncin","centre":{"type":"Point","coordinates":[5.4173,46.0896]}},{"code":"01304","nom":"Pont-d'Ain","centre":{"type":"Point","coordinates":[5.3468,46.0557]}},{"code":"01305","nom":"Pont-de-Vaux","centre":{"type":"Point","coordinates":[4.9295,46.439]}},{"code":"01306","nom":"Pont-de-Veyle","centre":{"type":"Point","coordinates":[4.883,46.263]}},{"code":"01307","nom":"Port","centre":{"type":"Point","coordinates":[5.5805,46.1565]}},{"code":"01308","nom":"Pougny","centre":{"type":"Point","coordinates":[5.9458,46.1492]}},{"code":"01309","nom":"Pouillat","centre":{"type":"Point","coordinates":[5.4261,46.326]}},{"code":"01310","nom":"Prémeyzel","centre":{"type":"Point","coordinates":[5.6457,45.6838]}},{"code":"01311","nom":"Prémillieu","centre":{"type":"Point","coordinates":[5.5628,45.8734]}},{"code":"01313","nom":"Prévessin-Moëns","centre":{"type":"Point","coordinates":[6.0712,46.2607]}},{"code":"01314","nom":"Priay","centre":{"type":"Point","coordinates":[5.2804,46.0233]}},{"code":"01317","nom":"Ramasse","centre":{"type":"Point","coordinates":[5.3567,46.191]}},{"code":"01318","nom":"Rancé","centre":{"type":"Point","coordinates":[4.868,45.9701]}},{"code":"01319","nom":"Relevant","centre":{"type":"Point","coordinates":[4.9412,46.0811]}},{"code":"01320","nom":"Replonges","centre":{"type":"Point","coordinates":[4.8829,46.3066]}},{"code":"01321","nom":"Revonnas","centre":{"type":"Point","coordinates":[5.3349,46.1637]}},{"code":"01322","nom":"Reyrieux","centre":{"type":"Point","coordinates":[4.832,45.9359]}},{"code":"01323","nom":"Reyssouze","centre":{"type":"Point","coordinates":[4.912,46.432]}},{"code":"01325","nom":"Rignieux-le-Franc","centre":{"type":"Point","coordinates":[5.1694,45.9531]}},{"code":"01328","nom":"Romans","centre":{"type":"Point","coordinates":[5.0167,46.1215]}},{"code":"01329","nom":"Rossillon","centre":{"type":"Point","coordinates":[5.587,45.8365]}},{"code":"01330","nom":"Ruffieu","centre":{"type":"Point","coordinates":[5.6652,46.004]}},{"code":"01331","nom":"Saint-Alban","centre":{"type":"Point","coordinates":[5.4548,46.0963]}},{"code":"01332","nom":"Saint-André-de-Bâgé","centre":{"type":"Point","coordinates":[4.915,46.2994]}},{"code":"01333","nom":"Saint-André-de-Corcy","centre":{"type":"Point","coordinates":[4.9511,45.9242]}},{"code":"01334","nom":"Saint-André-d'Huiriat","centre":{"type":"Point","coordinates":[4.9083,46.2112]}},{"code":"01335","nom":"Saint-André-le-Bouchoux","centre":{"type":"Point","coordinates":[5.0801,46.1136]}},{"code":"01336","nom":"Saint-André-sur-Vieux-Jonc","centre":{"type":"Point","coordinates":[5.1432,46.1511]}},{"code":"01337","nom":"Saint-Bénigne","centre":{"type":"Point","coordinates":[4.9582,46.4477]}},{"code":"01338","nom":"Groslée-Saint-Benoit","centre":{"type":"Point","coordinates":[5.581,45.7025]}},{"code":"01339","nom":"Saint-Bernard","centre":{"type":"Point","coordinates":[4.7471,45.9491]}},{"code":"01342","nom":"Sainte-Croix","centre":{"type":"Point","coordinates":[5.0477,45.8984]}},{"code":"01343","nom":"Saint-Cyr-sur-Menthon","centre":{"type":"Point","coordinates":[4.966,46.2727]}},{"code":"01344","nom":"Saint-Denis-lès-Bourg","centre":{"type":"Point","coordinates":[5.1791,46.2117]}},{"code":"01345","nom":"Saint-Denis-en-Bugey","centre":{"type":"Point","coordinates":[5.3244,45.9504]}},{"code":"01346","nom":"Saint-Didier-d'Aussiat","centre":{"type":"Point","coordinates":[5.0569,46.309]}},{"code":"01347","nom":"Saint-Didier-de-Formans","centre":{"type":"Point","coordinates":[4.7723,45.9571]}},{"code":"01348","nom":"Saint-Didier-sur-Chalaronne","centre":{"type":"Point","coordinates":[4.8208,46.1812]}},{"code":"01349","nom":"Saint-Éloi","centre":{"type":"Point","coordinates":[5.1541,45.933]}},{"code":"01350","nom":"Saint-Étienne-du-Bois","centre":{"type":"Point","coordinates":[5.2951,46.2774]}},{"code":"01351","nom":"Saint-Étienne-sur-Chalaronne","centre":{"type":"Point","coordinates":[4.8737,46.1452]}},{"code":"01352","nom":"Saint-Étienne-sur-Reyssouze","centre":{"type":"Point","coordinates":[5.0085,46.4032]}},{"code":"01353","nom":"Sainte-Euphémie","centre":{"type":"Point","coordinates":[4.7909,45.9711]}},{"code":"01354","nom":"Saint-Genis-Pouilly","centre":{"type":"Point","coordinates":[6.0327,46.255]}},{"code":"01355","nom":"Saint-Genis-sur-Menthon","centre":{"type":"Point","coordinates":[5.0129,46.2802]}},{"code":"01356","nom":"Saint-Georges-sur-Renon","centre":{"type":"Point","coordinates":[5.0292,46.1035]}},{"code":"01357","nom":"Saint-Germain-de-Joux","centre":{"type":"Point","coordinates":[5.7363,46.1843]}},{"code":"01358","nom":"Saint-Germain-les-Paroisses","centre":{"type":"Point","coordinates":[5.6195,45.7674]}},{"code":"01359","nom":"Saint-Germain-sur-Renon","centre":{"type":"Point","coordinates":[5.0534,46.0773]}},{"code":"01360","nom":"Saint-Jean-de-Gonville","centre":{"type":"Point","coordinates":[5.9474,46.2137]}},{"code":"01361","nom":"Saint-Jean-de-Niost","centre":{"type":"Point","coordinates":[5.2053,45.8421]}},{"code":"01362","nom":"Saint-Jean-de-Thurigneux","centre":{"type":"Point","coordinates":[4.9061,45.9569]}},{"code":"01363","nom":"Saint-Jean-le-Vieux","centre":{"type":"Point","coordinates":[5.3847,46.0306]}},{"code":"01364","nom":"Saint-Jean-sur-Reyssouze","centre":{"type":"Point","coordinates":[5.0616,46.3964]}},{"code":"01365","nom":"Saint-Jean-sur-Veyle","centre":{"type":"Point","coordinates":[4.9251,46.2654]}},{"code":"01366","nom":"Sainte-Julie","centre":{"type":"Point","coordinates":[5.2887,45.89]}},{"code":"01367","nom":"Saint-Julien-sur-Reyssouze","centre":{"type":"Point","coordinates":[5.1053,46.3969]}},{"code":"01368","nom":"Saint-Julien-sur-Veyle","centre":{"type":"Point","coordinates":[4.9604,46.2052]}},{"code":"01369","nom":"Saint-Just","centre":{"type":"Point","coordinates":[5.2851,46.1926]}},{"code":"01370","nom":"Saint-Laurent-sur-Saône","centre":{"type":"Point","coordinates":[4.8402,46.3044]}},{"code":"01371","nom":"Saint-Marcel","centre":{"type":"Point","coordinates":[4.9892,45.9487]}},{"code":"01372","nom":"Saint-Martin-de-Bavel","centre":{"type":"Point","coordinates":[5.6767,45.8495]}},{"code":"01373","nom":"Saint-Martin-du-Frêne","centre":{"type":"Point","coordinates":[5.5602,46.1385]}},{"code":"01374","nom":"Saint-Martin-du-Mont","centre":{"type":"Point","coordinates":[5.3358,46.1072]}},{"code":"01375","nom":"Saint-Martin-le-Châtel","centre":{"type":"Point","coordinates":[5.1248,46.2898]}},{"code":"01376","nom":"Saint-Maurice-de-Beynost","centre":{"type":"Point","coordinates":[4.9759,45.8385]}},{"code":"01378","nom":"Saint-Maurice-de-Gourdans","centre":{"type":"Point","coordinates":[5.1694,45.8177]}},{"code":"01379","nom":"Saint-Maurice-de-Rémens","centre":{"type":"Point","coordinates":[5.2738,45.9587]}},{"code":"01380","nom":"Saint-Nizier-le-Bouchoux","centre":{"type":"Point","coordinates":[5.1788,46.455]}},{"code":"01381","nom":"Saint-Nizier-le-Désert","centre":{"type":"Point","coordinates":[5.1451,46.0556]}},{"code":"01382","nom":"Sainte-Olive","centre":{"type":"Point","coordinates":[4.9339,46.0149]}},{"code":"01383","nom":"Saint-Paul-de-Varax","centre":{"type":"Point","coordinates":[5.1319,46.0945]}},{"code":"01384","nom":"Saint-Rambert-en-Bugey","centre":{"type":"Point","coordinates":[5.4415,45.952]}},{"code":"01385","nom":"Saint-Rémy","centre":{"type":"Point","coordinates":[5.1659,46.1831]}},{"code":"01386","nom":"Saint-Sorlin-en-Bugey","centre":{"type":"Point","coordinates":[5.3787,45.8903]}},{"code":"01387","nom":"Saint-Sulpice","centre":{"type":"Point","coordinates":[5.0416,46.3214]}},{"code":"01388","nom":"Saint-Trivier-de-Courtes","centre":{"type":"Point","coordinates":[5.0677,46.459]}},{"code":"01389","nom":"Saint-Trivier-sur-Moignans","centre":{"type":"Point","coordinates":[4.9013,46.0603]}},{"code":"01390","nom":"Saint-Vulbas","centre":{"type":"Point","coordinates":[5.2742,45.8367]}},{"code":"01391","nom":"Salavre","centre":{"type":"Point","coordinates":[5.3458,46.3644]}},{"code":"01392","nom":"Samognat","centre":{"type":"Point","coordinates":[5.5906,46.2709]}},{"code":"01393","nom":"Sandrans","centre":{"type":"Point","coordinates":[4.979,46.07]}},{"code":"01396","nom":"Sault-Brénaz","centre":{"type":"Point","coordinates":[5.4111,45.8654]}},{"code":"01397","nom":"Sauverny","centre":{"type":"Point","coordinates":[6.1137,46.3123]}},{"code":"01398","nom":"Savigneux","centre":{"type":"Point","coordinates":[4.8626,46.0003]}},{"code":"01399","nom":"Ségny","centre":{"type":"Point","coordinates":[6.0708,46.2922]}},{"code":"01400","nom":"Seillonnaz","centre":{"type":"Point","coordinates":[5.5037,45.7953]}},{"code":"01401","nom":"Sergy","centre":{"type":"Point","coordinates":[6.007,46.2548]}},{"code":"01402","nom":"Sermoyer","centre":{"type":"Point","coordinates":[4.9731,46.4995]}},{"code":"01403","nom":"Serrières-de-Briord","centre":{"type":"Point","coordinates":[5.4511,45.8115]}},{"code":"01404","nom":"Serrières-sur-Ain","centre":{"type":"Point","coordinates":[5.4502,46.1484]}},{"code":"01405","nom":"Servas","centre":{"type":"Point","coordinates":[5.1787,46.139]}},{"code":"01406","nom":"Servignat","centre":{"type":"Point","coordinates":[5.0612,46.4337]}},{"code":"01407","nom":"Seyssel","centre":{"type":"Point","coordinates":[5.8277,45.9493]}},{"code":"01408","nom":"Simandre-sur-Suran","centre":{"type":"Point","coordinates":[5.4271,46.2356]}},{"code":"01410","nom":"Sonthonnax-la-Montagne","centre":{"type":"Point","coordinates":[5.5084,46.2244]}},{"code":"01411","nom":"Souclin","centre":{"type":"Point","coordinates":[5.4304,45.8771]}},{"code":"01412","nom":"Sulignat","centre":{"type":"Point","coordinates":[4.9579,46.1752]}},{"code":"01415","nom":"Talissieu","centre":{"type":"Point","coordinates":[5.7181,45.8655]}},{"code":"01416","nom":"Tenay","centre":{"type":"Point","coordinates":[5.5166,45.9216]}},{"code":"01418","nom":"Thil","centre":{"type":"Point","coordinates":[5.019,45.8176]}},{"code":"01419","nom":"Thoiry","centre":{"type":"Point","coordinates":[5.9786,46.2318]}},{"code":"01420","nom":"Thoissey","centre":{"type":"Point","coordinates":[4.7981,46.1701]}},{"code":"01421","nom":"Torcieu","centre":{"type":"Point","coordinates":[5.4061,45.924]}},{"code":"01422","nom":"Tossiat","centre":{"type":"Point","coordinates":[5.3051,46.138]}},{"code":"01423","nom":"Toussieux","centre":{"type":"Point","coordinates":[4.827,45.9561]}},{"code":"01424","nom":"Tramoyes","centre":{"type":"Point","coordinates":[4.9731,45.8762]}},{"code":"01425","nom":"La Tranclière","centre":{"type":"Point","coordinates":[5.2593,46.0932]}},{"code":"01426","nom":"Val-Revermont","centre":{"type":"Point","coordinates":[5.359,46.2768]}},{"code":"01427","nom":"Trévoux","centre":{"type":"Point","coordinates":[4.7642,45.944]}},{"code":"01428","nom":"Valeins","centre":{"type":"Point","coordinates":[4.8639,46.1168]}},{"code":"01429","nom":"Vandeins","centre":{"type":"Point","coordinates":[5.0817,46.2205]}},{"code":"01430","nom":"Varambon","centre":{"type":"Point","coordinates":[5.2866,46.0464]}},{"code":"01431","nom":"Vaux-en-Bugey","centre":{"type":"Point","coordinates":[5.3639,45.9193]}},{"code":"01432","nom":"Verjon","centre":{"type":"Point","coordinates":[5.3458,46.3434]}},{"code":"01433","nom":"Vernoux","centre":{"type":"Point","coordinates":[5.1067,46.4868]}},{"code":"01434","nom":"Versailleux","centre":{"type":"Point","coordinates":[5.1167,45.9845]}},{"code":"01435","nom":"Versonnex","centre":{"type":"Point","coordinates":[6.1057,46.3023]}},{"code":"01436","nom":"Vesancy","centre":{"type":"Point","coordinates":[6.0793,46.3654]}},{"code":"01437","nom":"Vescours","centre":{"type":"Point","coordinates":[5.0264,46.4774]}},{"code":"01439","nom":"Vésines","centre":{"type":"Point","coordinates":[4.8647,46.3566]}},{"code":"01441","nom":"Vieu-d'Izenave","centre":{"type":"Point","coordinates":[5.5468,46.0864]}},{"code":"01443","nom":"Villars-les-Dombes","centre":{"type":"Point","coordinates":[5.0397,45.9989]}},{"code":"01444","nom":"Villebois","centre":{"type":"Point","coordinates":[5.4474,45.856]}},{"code":"01445","nom":"Villemotier","centre":{"type":"Point","coordinates":[5.309,46.3465]}},{"code":"01446","nom":"Villeneuve","centre":{"type":"Point","coordinates":[4.8527,46.0331]}},{"code":"01447","nom":"Villereversure","centre":{"type":"Point","coordinates":[5.3925,46.1894]}},{"code":"01448","nom":"Villes","centre":{"type":"Point","coordinates":[5.7679,46.0937]}},{"code":"01449","nom":"Villette-sur-Ain","centre":{"type":"Point","coordinates":[5.2505,46.0134]}},{"code":"01450","nom":"Villieu-Loyes-Mollon","centre":{"type":"Point","coordinates":[5.2246,45.9365]}},{"code":"01451","nom":"Viriat","centre":{"type":"Point","coordinates":[5.2183,46.2501]}},{"code":"01452","nom":"Virieu-le-Grand","centre":{"type":"Point","coordinates":[5.6552,45.8483]}},{"code":"01453","nom":"Arvière-en-Valromey","centre":{"type":"Point","coordinates":[5.7263,45.9132]}},{"code":"01454","nom":"Virignin","centre":{"type":"Point","coordinates":[5.7138,45.7292]}},{"code":"01456","nom":"Vongnes","centre":{"type":"Point","coordinates":[5.726,45.8126]}},{"code":"01457","nom":"Vonnas","centre":{"type":"Point","coordinates":[4.9959,46.2152]}},{"code":"02001","nom":"Abbécourt","centre":{"type":"Point","coordinates":[3.1809,49.5971]}},{"code":"02002","nom":"Achery","centre":{"type":"Point","coordinates":[3.3943,49.6923]}},{"code":"02003","nom":"Acy","centre":{"type":"Point","coordinates":[3.4197,49.3502]}},{"code":"02004","nom":"Agnicourt-et-Séchelles","centre":{"type":"Point","coordinates":[3.9635,49.7187]}},{"code":"02005","nom":"Aguilcourt","centre":{"type":"Point","coordinates":[3.9744,49.3989]}},{"code":"02006","nom":"Aisonville-et-Bernoville","centre":{"type":"Point","coordinates":[3.5083,49.9311]}},{"code":"02007","nom":"Aizelles","centre":{"type":"Point","coordinates":[3.8189,49.4873]}},{"code":"02008","nom":"Aizy-Jouy","centre":{"type":"Point","coordinates":[3.5055,49.4377]}},{"code":"02009","nom":"Alaincourt","centre":{"type":"Point","coordinates":[3.3739,49.7651]}},{"code":"02010","nom":"Allemant","centre":{"type":"Point","coordinates":[3.4577,49.4635]}},{"code":"02011","nom":"Ambleny","centre":{"type":"Point","coordinates":[3.1842,49.3744]}},{"code":"02012","nom":"Ambrief","centre":{"type":"Point","coordinates":[3.4011,49.3195]}},{"code":"02013","nom":"Amifontaine","centre":{"type":"Point","coordinates":[3.9203,49.49]}},{"code":"02014","nom":"Amigny-Rouy","centre":{"type":"Point","coordinates":[3.2956,49.6221]}},{"code":"02015","nom":"Ancienville","centre":{"type":"Point","coordinates":[3.2053,49.2221]}},{"code":"02016","nom":"Andelain","centre":{"type":"Point","coordinates":[3.3685,49.642]}},{"code":"02017","nom":"Anguilcourt-le-Sart","centre":{"type":"Point","coordinates":[3.4236,49.6916]}},{"code":"02018","nom":"Anizy-le-Grand","centre":{"type":"Point","coordinates":[3.4494,49.5109]}},{"code":"02019","nom":"Annois","centre":{"type":"Point","coordinates":[3.1742,49.7149]}},{"code":"02020","nom":"Any-Martin-Rieux","centre":{"type":"Point","coordinates":[4.2166,49.8875]}},{"code":"02021","nom":"Archon","centre":{"type":"Point","coordinates":[4.1217,49.745]}},{"code":"02022","nom":"Arcy-Sainte-Restitue","centre":{"type":"Point","coordinates":[3.4767,49.2563]}},{"code":"02023","nom":"Armentières-sur-Ourcq","centre":{"type":"Point","coordinates":[3.3825,49.1773]}},{"code":"02024","nom":"Arrancy","centre":{"type":"Point","coordinates":[3.761,49.4988]}},{"code":"02025","nom":"Artemps","centre":{"type":"Point","coordinates":[3.1909,49.7635]}},{"code":"02027","nom":"Assis-sur-Serre","centre":{"type":"Point","coordinates":[3.5556,49.6824]}},{"code":"02028","nom":"Athies-sous-Laon","centre":{"type":"Point","coordinates":[3.6915,49.578]}},{"code":"02029","nom":"Attilly","centre":{"type":"Point","coordinates":[3.1488,49.8583]}},{"code":"02030","nom":"Aubencheul-aux-Bois","centre":{"type":"Point","coordinates":[3.2601,50.0234]}},{"code":"02031","nom":"Aubenton","centre":{"type":"Point","coordinates":[4.1863,49.8225]}},{"code":"02032","nom":"Aubigny-aux-Kaisnes","centre":{"type":"Point","coordinates":[3.1191,49.7749]}},{"code":"02033","nom":"Aubigny-en-Laonnois","centre":{"type":"Point","coordinates":[3.7915,49.4984]}},{"code":"02034","nom":"Audignicourt","centre":{"type":"Point","coordinates":[3.1263,49.4796]}},{"code":"02035","nom":"Audigny","centre":{"type":"Point","coordinates":[3.6318,49.8678]}},{"code":"02036","nom":"Augy","centre":{"type":"Point","coordinates":[3.5136,49.3429]}},{"code":"02037","nom":"Aulnois-sous-Laon","centre":{"type":"Point","coordinates":[3.6121,49.6194]}},{"code":"02038","nom":"Les Autels","centre":{"type":"Point","coordinates":[4.224,49.7594]}},{"code":"02039","nom":"Autremencourt","centre":{"type":"Point","coordinates":[3.7891,49.7043]}},{"code":"02040","nom":"Autreppes","centre":{"type":"Point","coordinates":[3.8602,49.8998]}},{"code":"02041","nom":"Autreville","centre":{"type":"Point","coordinates":[3.2347,49.5874]}},{"code":"02042","nom":"Azy-sur-Marne","centre":{"type":"Point","coordinates":[3.3567,49.0028]}},{"code":"02043","nom":"Bagneux","centre":{"type":"Point","coordinates":[3.2786,49.4569]}},{"code":"02044","nom":"Bancigny","centre":{"type":"Point","coordinates":[4.0362,49.7999]}},{"code":"02046","nom":"Barenton-Bugny","centre":{"type":"Point","coordinates":[3.657,49.6239]}},{"code":"02047","nom":"Barenton-Cel","centre":{"type":"Point","coordinates":[3.6466,49.6436]}},{"code":"02048","nom":"Barenton-sur-Serre","centre":{"type":"Point","coordinates":[3.6865,49.6714]}},{"code":"02049","nom":"Barisis-aux-Bois","centre":{"type":"Point","coordinates":[3.3371,49.582]}},{"code":"02050","nom":"Barzy-en-Thiérache","centre":{"type":"Point","coordinates":[3.7505,50.0398]}},{"code":"02051","nom":"Barzy-sur-Marne","centre":{"type":"Point","coordinates":[3.5557,49.0978]}},{"code":"02052","nom":"Bassoles-Aulers","centre":{"type":"Point","coordinates":[3.3814,49.5294]}},{"code":"02053","nom":"Vallées en Champagne","centre":{"type":"Point","coordinates":[3.6063,49.0001]}},{"code":"02054","nom":"Bazoches-sur-Vesles","centre":{"type":"Point","coordinates":[3.6128,49.3035]}},{"code":"02055","nom":"Beaumé","centre":{"type":"Point","coordinates":[4.1482,49.8223]}},{"code":"02056","nom":"Beaumont-en-Beine","centre":{"type":"Point","coordinates":[3.1332,49.6928]}},{"code":"02057","nom":"Beaurevoir","centre":{"type":"Point","coordinates":[3.3242,49.9928]}},{"code":"02058","nom":"Beaurieux","centre":{"type":"Point","coordinates":[3.7535,49.4024]}},{"code":"02059","nom":"Beautor","centre":{"type":"Point","coordinates":[3.3365,49.6469]}},{"code":"02060","nom":"Beauvois-en-Vermandois","centre":{"type":"Point","coordinates":[3.0994,49.8339]}},{"code":"02061","nom":"Becquigny","centre":{"type":"Point","coordinates":[3.4614,50.0143]}},{"code":"02062","nom":"Belleau","centre":{"type":"Point","coordinates":[3.2964,49.0841]}},{"code":"02063","nom":"Bellenglise","centre":{"type":"Point","coordinates":[3.2436,49.9258]}},{"code":"02064","nom":"Belleu","centre":{"type":"Point","coordinates":[3.3369,49.3571]}},{"code":"02065","nom":"Bellicourt","centre":{"type":"Point","coordinates":[3.2314,49.9566]}},{"code":"02066","nom":"Benay","centre":{"type":"Point","coordinates":[3.311,49.7532]}},{"code":"02067","nom":"Bergues-sur-Sambre","centre":{"type":"Point","coordinates":[3.7094,50.031]}},{"code":"02068","nom":"Berlancourt","centre":{"type":"Point","coordinates":[3.7527,49.7806]}},{"code":"02069","nom":"Berlise","centre":{"type":"Point","coordinates":[4.1168,49.6645]}},{"code":"02070","nom":"Bernot","centre":{"type":"Point","coordinates":[3.4924,49.8801]}},{"code":"02071","nom":"Berny-Rivière","centre":{"type":"Point","coordinates":[3.1491,49.4146]}},{"code":"02072","nom":"Berrieux","centre":{"type":"Point","coordinates":[3.8497,49.4845]}},{"code":"02073","nom":"Berry-au-Bac","centre":{"type":"Point","coordinates":[3.8881,49.4104]}},{"code":"02074","nom":"Bertaucourt-Epourdon","centre":{"type":"Point","coordinates":[3.3977,49.625]}},{"code":"02075","nom":"Berthenicourt","centre":{"type":"Point","coordinates":[3.3748,49.7778]}},{"code":"02076","nom":"Bertricourt","centre":{"type":"Point","coordinates":[4.0067,49.3943]}},{"code":"02077","nom":"Berzy-le-Sec","centre":{"type":"Point","coordinates":[3.3073,49.3241]}},{"code":"02078","nom":"Besmé","centre":{"type":"Point","coordinates":[3.1622,49.533]}},{"code":"02079","nom":"Besmont","centre":{"type":"Point","coordinates":[4.1246,49.817]}},{"code":"02080","nom":"Besny-et-Loizy","centre":{"type":"Point","coordinates":[3.5712,49.593]}},{"code":"02081","nom":"Béthancourt-en-Vaux","centre":{"type":"Point","coordinates":[3.1421,49.6292]}},{"code":"02082","nom":"Beugneux","centre":{"type":"Point","coordinates":[3.4176,49.2238]}},{"code":"02083","nom":"Beuvardes","centre":{"type":"Point","coordinates":[3.494,49.1309]}},{"code":"02084","nom":"Bézu-le-Guéry","centre":{"type":"Point","coordinates":[3.2203,49.0071]}},{"code":"02085","nom":"Bézu-Saint-Germain","centre":{"type":"Point","coordinates":[3.408,49.1068]}},{"code":"02086","nom":"Bichancourt","centre":{"type":"Point","coordinates":[3.2135,49.5799]}},{"code":"02087","nom":"Bieuxy","centre":{"type":"Point","coordinates":[3.264,49.4526]}},{"code":"02088","nom":"Bièvres","centre":{"type":"Point","coordinates":[3.7158,49.4909]}},{"code":"02089","nom":"Billy-sur-Aisne","centre":{"type":"Point","coordinates":[3.3834,49.3573]}},{"code":"02090","nom":"Billy-sur-Ourcq","centre":{"type":"Point","coordinates":[3.2938,49.2225]}},{"code":"02091","nom":"Blanzy-lès-Fismes","centre":{"type":"Point","coordinates":[3.67,49.3385]}},{"code":"02093","nom":"Blérancourt","centre":{"type":"Point","coordinates":[3.1556,49.5144]}},{"code":"02094","nom":"Blesmes","centre":{"type":"Point","coordinates":[3.4539,49.0311]}},{"code":"02095","nom":"Bohain-en-Vermandois","centre":{"type":"Point","coordinates":[3.4652,49.9885]}},{"code":"02096","nom":"Bois-lès-Pargny","centre":{"type":"Point","coordinates":[3.6538,49.7407]}},{"code":"02097","nom":"Boncourt","centre":{"type":"Point","coordinates":[3.9545,49.6219]}},{"code":"02098","nom":"Bonneil","centre":{"type":"Point","coordinates":[3.345,49.0081]}},{"code":"02099","nom":"Bonnesvalyn","centre":{"type":"Point","coordinates":[3.3281,49.124]}},{"code":"02100","nom":"Bony","centre":{"type":"Point","coordinates":[3.2207,49.9926]}},{"code":"02101","nom":"Bosmont-sur-Serre","centre":{"type":"Point","coordinates":[3.8677,49.7366]}},{"code":"02102","nom":"Bouconville-Vauclair","centre":{"type":"Point","coordinates":[3.7561,49.4614]}},{"code":"02103","nom":"Boué","centre":{"type":"Point","coordinates":[3.709,50.0096]}},{"code":"02104","nom":"Bouffignereux","centre":{"type":"Point","coordinates":[3.8481,49.376]}},{"code":"02105","nom":"Bouresches","centre":{"type":"Point","coordinates":[3.3147,49.066]}},{"code":"02106","nom":"Bourg-et-Comin","centre":{"type":"Point","coordinates":[3.6603,49.4036]}},{"code":"02107","nom":"Bourguignon-sous-Coucy","centre":{"type":"Point","coordinates":[3.1572,49.5445]}},{"code":"02108","nom":"Bourguignon-sous-Montbavin","centre":{"type":"Point","coordinates":[3.5409,49.5264]}},{"code":"02109","nom":"La Bouteille","centre":{"type":"Point","coordinates":[3.9636,49.8826]}},{"code":"02110","nom":"Braine","centre":{"type":"Point","coordinates":[3.5338,49.3447]}},{"code":"02111","nom":"Brancourt-en-Laonnois","centre":{"type":"Point","coordinates":[3.4123,49.5142]}},{"code":"02112","nom":"Brancourt-le-Grand","centre":{"type":"Point","coordinates":[3.3963,49.9802]}},{"code":"02114","nom":"Brasles","centre":{"type":"Point","coordinates":[3.4114,49.0601]}},{"code":"02115","nom":"Braye-en-Laonnois","centre":{"type":"Point","coordinates":[3.6114,49.4349]}},{"code":"02116","nom":"Braye-en-Thiérache","centre":{"type":"Point","coordinates":[3.9617,49.7662]}},{"code":"02117","nom":"Bray-Saint-Christophe","centre":{"type":"Point","coordinates":[3.143,49.775]}},{"code":"02118","nom":"Braye","centre":{"type":"Point","coordinates":[3.3777,49.425]}},{"code":"02119","nom":"Brécy","centre":{"type":"Point","coordinates":[3.4281,49.1392]}},{"code":"02120","nom":"Brenelle","centre":{"type":"Point","coordinates":[3.5462,49.3651]}},{"code":"02121","nom":"Breny","centre":{"type":"Point","coordinates":[3.3456,49.1853]}},{"code":"02122","nom":"Brie","centre":{"type":"Point","coordinates":[3.4745,49.5985]}},{"code":"02123","nom":"Brissay-Choigny","centre":{"type":"Point","coordinates":[3.3894,49.724]}},{"code":"02124","nom":"Brissy-Hamégicourt","centre":{"type":"Point","coordinates":[3.3903,49.7463]}},{"code":"02125","nom":"Brumetz","centre":{"type":"Point","coordinates":[3.147,49.1061]}},{"code":"02126","nom":"Brunehamel","centre":{"type":"Point","coordinates":[4.1901,49.771]}},{"code":"02127","nom":"Bruyères-sur-Fère","centre":{"type":"Point","coordinates":[3.443,49.1981]}},{"code":"02128","nom":"Bruyères-et-Montbérault","centre":{"type":"Point","coordinates":[3.6704,49.5144]}},{"code":"02129","nom":"Bruys","centre":{"type":"Point","coordinates":[3.5669,49.2602]}},{"code":"02130","nom":"Bucilly","centre":{"type":"Point","coordinates":[4.0915,49.8649]}},{"code":"02131","nom":"Bucy-le-Long","centre":{"type":"Point","coordinates":[3.3932,49.3847]}},{"code":"02132","nom":"Bucy-lès-Cerny","centre":{"type":"Point","coordinates":[3.4899,49.5786]}},{"code":"02133","nom":"Bucy-lès-Pierrepont","centre":{"type":"Point","coordinates":[3.9021,49.6499]}},{"code":"02134","nom":"Buire","centre":{"type":"Point","coordinates":[4.0579,49.9073]}},{"code":"02135","nom":"Buironfosse","centre":{"type":"Point","coordinates":[3.8337,49.9588]}},{"code":"02136","nom":"Burelles","centre":{"type":"Point","coordinates":[3.9116,49.773]}},{"code":"02137","nom":"Bussiares","centre":{"type":"Point","coordinates":[3.2508,49.0836]}},{"code":"02138","nom":"Buzancy","centre":{"type":"Point","coordinates":[3.3515,49.3113]}},{"code":"02139","nom":"Caillouël-Crépigny","centre":{"type":"Point","coordinates":[3.1247,49.6186]}},{"code":"02140","nom":"Camelin","centre":{"type":"Point","coordinates":[3.1303,49.5185]}},{"code":"02141","nom":"La Capelle","centre":{"type":"Point","coordinates":[3.9104,49.9721]}},{"code":"02142","nom":"Castres","centre":{"type":"Point","coordinates":[3.2512,49.8044]}},{"code":"02143","nom":"Le Catelet","centre":{"type":"Point","coordinates":[3.2435,50.001]}},{"code":"02144","nom":"Caulaincourt","centre":{"type":"Point","coordinates":[3.1095,49.8629]}},{"code":"02145","nom":"Caumont","centre":{"type":"Point","coordinates":[3.1715,49.6385]}},{"code":"02146","nom":"Celles-lès-Condé","centre":{"type":"Point","coordinates":[3.5731,49.0143]}},{"code":"02148","nom":"Celles-sur-Aisne","centre":{"type":"Point","coordinates":[3.4701,49.4171]}},{"code":"02149","nom":"Cerizy","centre":{"type":"Point","coordinates":[3.3326,49.7657]}},{"code":"02150","nom":"Cerny-en-Laonnois","centre":{"type":"Point","coordinates":[3.6829,49.4534]}},{"code":"02151","nom":"Cerny-lès-Bucy","centre":{"type":"Point","coordinates":[3.5446,49.5769]}},{"code":"02152","nom":"Cerseuil","centre":{"type":"Point","coordinates":[3.519,49.3257]}},{"code":"02153","nom":"Cessières-Suzy","centre":{"type":"Point","coordinates":[3.488,49.5595]}},{"code":"02154","nom":"Chacrise","centre":{"type":"Point","coordinates":[3.3943,49.3014]}},{"code":"02155","nom":"Chaillevois","centre":{"type":"Point","coordinates":[3.5244,49.5079]}},{"code":"02156","nom":"Chalandry","centre":{"type":"Point","coordinates":[3.6474,49.6729]}},{"code":"02157","nom":"Chambry","centre":{"type":"Point","coordinates":[3.6713,49.5984]}},{"code":"02158","nom":"Chamouille","centre":{"type":"Point","coordinates":[3.6708,49.472]}},{"code":"02159","nom":"Champs","centre":{"type":"Point","coordinates":[3.2585,49.5401]}},{"code":"02160","nom":"Chaourse","centre":{"type":"Point","coordinates":[3.988,49.7063]}},{"code":"02162","nom":"La Chapelle-sur-Chézy","centre":{"type":"Point","coordinates":[3.3726,48.95]}},{"code":"02163","nom":"Charly-sur-Marne","centre":{"type":"Point","coordinates":[3.2874,48.9746]}},{"code":"02164","nom":"Le Charmel","centre":{"type":"Point","coordinates":[3.5465,49.1064]}},{"code":"02165","nom":"Charmes","centre":{"type":"Point","coordinates":[3.3839,49.6531]}},{"code":"02166","nom":"Chartèves","centre":{"type":"Point","coordinates":[3.5063,49.0897]}},{"code":"02167","nom":"Chassemy","centre":{"type":"Point","coordinates":[3.4893,49.3775]}},{"code":"02168","nom":"Château-Thierry","centre":{"type":"Point","coordinates":[3.3861,49.0553]}},{"code":"02169","nom":"Châtillon-lès-Sons","centre":{"type":"Point","coordinates":[3.6989,49.7587]}},{"code":"02170","nom":"Châtillon-sur-Oise","centre":{"type":"Point","coordinates":[3.42,49.7919]}},{"code":"02171","nom":"Chaudardes","centre":{"type":"Point","coordinates":[3.7918,49.3957]}},{"code":"02172","nom":"Chaudun","centre":{"type":"Point","coordinates":[3.2495,49.3116]}},{"code":"02173","nom":"Chauny","centre":{"type":"Point","coordinates":[3.221,49.6144]}},{"code":"02174","nom":"Chavignon","centre":{"type":"Point","coordinates":[3.5198,49.4813]}},{"code":"02175","nom":"Chavigny","centre":{"type":"Point","coordinates":[3.3058,49.4207]}},{"code":"02176","nom":"Chavonne","centre":{"type":"Point","coordinates":[3.5629,49.408]}},{"code":"02177","nom":"Chérêt","centre":{"type":"Point","coordinates":[3.6887,49.5157]}},{"code":"02178","nom":"Chermizy-Ailles","centre":{"type":"Point","coordinates":[3.7129,49.466]}},{"code":"02179","nom":"Chéry-Chartreuve","centre":{"type":"Point","coordinates":[3.6061,49.256]}},{"code":"02180","nom":"Chéry-lès-Pouilly","centre":{"type":"Point","coordinates":[3.5923,49.6476]}},{"code":"02181","nom":"Chéry-lès-Rozoy","centre":{"type":"Point","coordinates":[4.0994,49.7235]}},{"code":"02182","nom":"Chevennes","centre":{"type":"Point","coordinates":[3.7373,49.8191]}},{"code":"02183","nom":"Chevregny","centre":{"type":"Point","coordinates":[3.5953,49.4671]}},{"code":"02184","nom":"Chevresis-Monceau","centre":{"type":"Point","coordinates":[3.5882,49.7632]}},{"code":"02185","nom":"Chézy-en-Orxois","centre":{"type":"Point","coordinates":[3.1596,49.1367]}},{"code":"02186","nom":"Chézy-sur-Marne","centre":{"type":"Point","coordinates":[3.3859,48.9803]}},{"code":"02187","nom":"Chierry","centre":{"type":"Point","coordinates":[3.437,49.0351]}},{"code":"02188","nom":"Chigny","centre":{"type":"Point","coordinates":[3.7742,49.9289]}},{"code":"02189","nom":"Chivres-en-Laonnois","centre":{"type":"Point","coordinates":[3.851,49.6243]}},{"code":"02190","nom":"Chivres-Val","centre":{"type":"Point","coordinates":[3.4314,49.3997]}},{"code":"02191","nom":"Chivy-lès-Étouvelles","centre":{"type":"Point","coordinates":[3.5872,49.532]}},{"code":"02192","nom":"Chouy","centre":{"type":"Point","coordinates":[3.2423,49.2078]}},{"code":"02193","nom":"Cierges","centre":{"type":"Point","coordinates":[3.6007,49.1628]}},{"code":"02194","nom":"Cilly","centre":{"type":"Point","coordinates":[3.8332,49.7436]}},{"code":"02195","nom":"Ciry-Salsogne","centre":{"type":"Point","coordinates":[3.4784,49.3812]}},{"code":"02196","nom":"Clacy-et-Thierret","centre":{"type":"Point","coordinates":[3.5616,49.5519]}},{"code":"02197","nom":"Clairfontaine","centre":{"type":"Point","coordinates":[3.9798,49.9648]}},{"code":"02198","nom":"Clamecy","centre":{"type":"Point","coordinates":[3.3685,49.428]}},{"code":"02199","nom":"Clastres","centre":{"type":"Point","coordinates":[3.2273,49.75]}},{"code":"02200","nom":"Clermont-les-Fermes","centre":{"type":"Point","coordinates":[3.9455,49.6631]}},{"code":"02201","nom":"Cœuvres-et-Valsery","centre":{"type":"Point","coordinates":[3.1495,49.328]}},{"code":"02203","nom":"Coincy","centre":{"type":"Point","coordinates":[3.4468,49.154]}},{"code":"02204","nom":"Coingt","centre":{"type":"Point","coordinates":[4.0912,49.7894]}},{"code":"02205","nom":"Colligis-Crandelain","centre":{"type":"Point","coordinates":[3.6324,49.4698]}},{"code":"02206","nom":"Colonfay","centre":{"type":"Point","coordinates":[3.711,49.8576]}},{"code":"02207","nom":"Commenchon","centre":{"type":"Point","coordinates":[3.1524,49.6415]}},{"code":"02208","nom":"Concevreux","centre":{"type":"Point","coordinates":[3.7837,49.3799]}},{"code":"02209","nom":"Condé-en-Brie","centre":{"type":"Point","coordinates":[3.563,48.999]}},{"code":"02210","nom":"Condé-sur-Aisne","centre":{"type":"Point","coordinates":[3.4715,49.3938]}},{"code":"02211","nom":"Condé-sur-Suippe","centre":{"type":"Point","coordinates":[3.9419,49.4156]}},{"code":"02212","nom":"Condren","centre":{"type":"Point","coordinates":[3.2784,49.6306]}},{"code":"02213","nom":"Connigis","centre":{"type":"Point","coordinates":[3.5292,49.0366]}},{"code":"02214","nom":"Contescourt","centre":{"type":"Point","coordinates":[3.2307,49.7921]}},{"code":"02215","nom":"Corbeny","centre":{"type":"Point","coordinates":[3.8196,49.4623]}},{"code":"02216","nom":"Corcy","centre":{"type":"Point","coordinates":[3.2035,49.2546]}},{"code":"02217","nom":"Coucy-le-Château-Auffrique","centre":{"type":"Point","coordinates":[3.3248,49.5166]}},{"code":"02218","nom":"Coucy-lès-Eppes","centre":{"type":"Point","coordinates":[3.7764,49.5549]}},{"code":"02219","nom":"Coucy-la-Ville","centre":{"type":"Point","coordinates":[3.3398,49.5404]}},{"code":"02220","nom":"Coulonges-Cohan","centre":{"type":"Point","coordinates":[3.6297,49.2042]}},{"code":"02221","nom":"Coupru","centre":{"type":"Point","coordinates":[3.2744,49.0278]}},{"code":"02222","nom":"Courbes","centre":{"type":"Point","coordinates":[3.458,49.6842]}},{"code":"02223","nom":"Courboin","centre":{"type":"Point","coordinates":[3.5142,48.9937]}},{"code":"02224","nom":"Courcelles-sur-Vesle","centre":{"type":"Point","coordinates":[3.5712,49.3409]}},{"code":"02225","nom":"Courchamps","centre":{"type":"Point","coordinates":[3.2588,49.1139]}},{"code":"02226","nom":"Courmelles","centre":{"type":"Point","coordinates":[3.3114,49.3433]}},{"code":"02227","nom":"Courmont","centre":{"type":"Point","coordinates":[3.5743,49.1411]}},{"code":"02228","nom":"Courtemont-Varennes","centre":{"type":"Point","coordinates":[3.542,49.0706]}},{"code":"02229","nom":"Courtrizy-et-Fussigny","centre":{"type":"Point","coordinates":[3.7965,49.518]}},{"code":"02230","nom":"Couvrelles","centre":{"type":"Point","coordinates":[3.4892,49.339]}},{"code":"02231","nom":"Couvron-et-Aumencourt","centre":{"type":"Point","coordinates":[3.5153,49.6454]}},{"code":"02232","nom":"Coyolles","centre":{"type":"Point","coordinates":[3.0119,49.2122]}},{"code":"02233","nom":"Cramaille","centre":{"type":"Point","coordinates":[3.4549,49.229]}},{"code":"02234","nom":"Craonne","centre":{"type":"Point","coordinates":[3.7936,49.4431]}},{"code":"02235","nom":"Craonnelle","centre":{"type":"Point","coordinates":[3.7765,49.4266]}},{"code":"02236","nom":"Crécy-au-Mont","centre":{"type":"Point","coordinates":[3.319,49.4879]}},{"code":"02237","nom":"Crécy-sur-Serre","centre":{"type":"Point","coordinates":[3.6158,49.6957]}},{"code":"02238","nom":"Crépy","centre":{"type":"Point","coordinates":[3.501,49.6041]}},{"code":"02239","nom":"Crézancy","centre":{"type":"Point","coordinates":[3.5223,49.0439]}},{"code":"02240","nom":"Croix-Fonsomme","centre":{"type":"Point","coordinates":[3.3919,49.9339]}},{"code":"02241","nom":"La Croix-sur-Ourcq","centre":{"type":"Point","coordinates":[3.3553,49.1589]}},{"code":"02242","nom":"Crouttes-sur-Marne","centre":{"type":"Point","coordinates":[3.2461,48.9789]}},{"code":"02243","nom":"Crouy","centre":{"type":"Point","coordinates":[3.3598,49.4066]}},{"code":"02244","nom":"Crupilly","centre":{"type":"Point","coordinates":[3.7546,49.9314]}},{"code":"02245","nom":"Cuffies","centre":{"type":"Point","coordinates":[3.3227,49.406]}},{"code":"02246","nom":"Cugny","centre":{"type":"Point","coordinates":[3.1556,49.7089]}},{"code":"02248","nom":"Cuirieux","centre":{"type":"Point","coordinates":[3.8233,49.6867]}},{"code":"02249","nom":"Cuiry-Housse","centre":{"type":"Point","coordinates":[3.4884,49.2868]}},{"code":"02250","nom":"Cuiry-lès-Chaudardes","centre":{"type":"Point","coordinates":[3.7608,49.3881]}},{"code":"02251","nom":"Cuiry-lès-Iviers","centre":{"type":"Point","coordinates":[4.1043,49.7666]}},{"code":"02252","nom":"Cuissy-et-Geny","centre":{"type":"Point","coordinates":[3.7112,49.3998]}},{"code":"02253","nom":"Cuisy-en-Almont","centre":{"type":"Point","coordinates":[3.2419,49.4181]}},{"code":"02254","nom":"Cutry","centre":{"type":"Point","coordinates":[3.1822,49.3472]}},{"code":"02255","nom":"Cys-la-Commune","centre":{"type":"Point","coordinates":[3.5748,49.3833]}},{"code":"02256","nom":"Dagny-Lambercy","centre":{"type":"Point","coordinates":[4.0514,49.7728]}},{"code":"02257","nom":"Dallon","centre":{"type":"Point","coordinates":[3.2332,49.8211]}},{"code":"02258","nom":"Dammard","centre":{"type":"Point","coordinates":[3.167,49.1434]}},{"code":"02259","nom":"Dampleux","centre":{"type":"Point","coordinates":[3.1516,49.2357]}},{"code":"02260","nom":"Danizy","centre":{"type":"Point","coordinates":[3.4032,49.6673]}},{"code":"02261","nom":"Dercy","centre":{"type":"Point","coordinates":[3.6847,49.7078]}},{"code":"02262","nom":"Deuillet","centre":{"type":"Point","coordinates":[3.3629,49.6285]}},{"code":"02263","nom":"Dhuizel","centre":{"type":"Point","coordinates":[3.6202,49.3632]}},{"code":"02264","nom":"Dizy-le-Gros","centre":{"type":"Point","coordinates":[4.0233,49.6395]}},{"code":"02265","nom":"Dohis","centre":{"type":"Point","coordinates":[4.1348,49.7662]}},{"code":"02266","nom":"Dolignon","centre":{"type":"Point","coordinates":[4.087,49.7263]}},{"code":"02267","nom":"Dommiers","centre":{"type":"Point","coordinates":[3.2146,49.3316]}},{"code":"02268","nom":"Domptin","centre":{"type":"Point","coordinates":[3.2711,49.0153]}},{"code":"02269","nom":"Dorengt","centre":{"type":"Point","coordinates":[3.7056,49.9675]}},{"code":"02270","nom":"Douchy","centre":{"type":"Point","coordinates":[3.131,49.7915]}},{"code":"02271","nom":"Dravegny","centre":{"type":"Point","coordinates":[3.6415,49.243]}},{"code":"02272","nom":"Droizy","centre":{"type":"Point","coordinates":[3.3892,49.2742]}},{"code":"02273","nom":"Dury","centre":{"type":"Point","coordinates":[3.1361,49.7481]}},{"code":"02274","nom":"Ébouleau","centre":{"type":"Point","coordinates":[3.884,49.6794]}},{"code":"02275","nom":"Effry","centre":{"type":"Point","coordinates":[3.9849,49.921]}},{"code":"02276","nom":"Englancourt","centre":{"type":"Point","coordinates":[3.8054,49.9235]}},{"code":"02277","nom":"Épagny","centre":{"type":"Point","coordinates":[3.2478,49.4685]}},{"code":"02278","nom":"Éparcy","centre":{"type":"Point","coordinates":[4.0693,49.8822]}},{"code":"02279","nom":"Épaux-Bézu","centre":{"type":"Point","coordinates":[3.3454,49.1023]}},{"code":"02280","nom":"Épieds","centre":{"type":"Point","coordinates":[3.4519,49.1047]}},{"code":"02281","nom":"L'Épine-aux-Bois","centre":{"type":"Point","coordinates":[3.442,48.8976]}},{"code":"02282","nom":"Eppes","centre":{"type":"Point","coordinates":[3.7495,49.549]}},{"code":"02283","nom":"Erlon","centre":{"type":"Point","coordinates":[3.7051,49.7346]}},{"code":"02284","nom":"Erloy","centre":{"type":"Point","coordinates":[3.8413,49.9178]}},{"code":"02286","nom":"Esquéhéries","centre":{"type":"Point","coordinates":[3.7518,49.9838]}},{"code":"02287","nom":"Essigny-le-Grand","centre":{"type":"Point","coordinates":[3.2691,49.7742]}},{"code":"02288","nom":"Essigny-le-Petit","centre":{"type":"Point","coordinates":[3.3668,49.8972]}},{"code":"02289","nom":"Essises","centre":{"type":"Point","coordinates":[3.417,48.9694]}},{"code":"02290","nom":"Essômes-sur-Marne","centre":{"type":"Point","coordinates":[3.3344,49.0373]}},{"code":"02291","nom":"Estrées","centre":{"type":"Point","coordinates":[3.2793,49.9728]}},{"code":"02292","nom":"Étampes-sur-Marne","centre":{"type":"Point","coordinates":[3.4165,49.0309]}},{"code":"02293","nom":"Étaves-et-Bocquiaux","centre":{"type":"Point","coordinates":[3.4505,49.9338]}},{"code":"02294","nom":"Étouvelles","centre":{"type":"Point","coordinates":[3.5796,49.5184]}},{"code":"02295","nom":"Étréaupont","centre":{"type":"Point","coordinates":[3.9289,49.9053]}},{"code":"02296","nom":"Étreillers","centre":{"type":"Point","coordinates":[3.159,49.8345]}},{"code":"02297","nom":"Étrépilly","centre":{"type":"Point","coordinates":[3.341,49.0856]}},{"code":"02298","nom":"Étreux","centre":{"type":"Point","coordinates":[3.6602,50.0024]}},{"code":"02299","nom":"Évergnicourt","centre":{"type":"Point","coordinates":[4.0401,49.4528]}},{"code":"02302","nom":"Faverolles","centre":{"type":"Point","coordinates":[3.1783,49.22]}},{"code":"02303","nom":"Fayet","centre":{"type":"Point","coordinates":[3.2533,49.8711]}},{"code":"02304","nom":"La Fère","centre":{"type":"Point","coordinates":[3.367,49.665]}},{"code":"02305","nom":"Fère-en-Tardenois","centre":{"type":"Point","coordinates":[3.5099,49.1799]}},{"code":"02306","nom":"La Ferté-Chevresis","centre":{"type":"Point","coordinates":[3.5488,49.746]}},{"code":"02307","nom":"La Ferté-Milon","centre":{"type":"Point","coordinates":[3.1404,49.1725]}},{"code":"02308","nom":"Fesmy-le-Sart","centre":{"type":"Point","coordinates":[3.6921,50.0454]}},{"code":"02309","nom":"Festieux","centre":{"type":"Point","coordinates":[3.7598,49.5277]}},{"code":"02310","nom":"Fieulaine","centre":{"type":"Point","coordinates":[3.4467,49.9008]}},{"code":"02311","nom":"Filain","centre":{"type":"Point","coordinates":[3.5569,49.453]}},{"code":"02312","nom":"La Flamengrie","centre":{"type":"Point","coordinates":[3.9204,49.9977]}},{"code":"02313","nom":"Flavigny-le-Grand-et-Beaurain","centre":{"type":"Point","coordinates":[3.6699,49.8869]}},{"code":"02315","nom":"Flavy-le-Martel","centre":{"type":"Point","coordinates":[3.1943,49.7091]}},{"code":"02316","nom":"Fleury","centre":{"type":"Point","coordinates":[3.1639,49.2641]}},{"code":"02317","nom":"Fluquières","centre":{"type":"Point","coordinates":[3.155,49.7988]}},{"code":"02318","nom":"Folembray","centre":{"type":"Point","coordinates":[3.2972,49.5513]}},{"code":"02319","nom":"Fonsomme","centre":{"type":"Point","coordinates":[3.395,49.9004]}},{"code":"02320","nom":"Fontaine-lès-Clercs","centre":{"type":"Point","coordinates":[3.2151,49.8076]}},{"code":"02321","nom":"Fontaine-lès-Vervins","centre":{"type":"Point","coordinates":[3.9038,49.8488]}},{"code":"02322","nom":"Fontaine-Notre-Dame","centre":{"type":"Point","coordinates":[3.4209,49.8806]}},{"code":"02323","nom":"Fontaine-Uterte","centre":{"type":"Point","coordinates":[3.3677,49.9275]}},{"code":"02324","nom":"Fontenelle","centre":{"type":"Point","coordinates":[3.8453,50.0255]}},{"code":"02326","nom":"Fontenoy","centre":{"type":"Point","coordinates":[3.1984,49.4101]}},{"code":"02327","nom":"Foreste","centre":{"type":"Point","coordinates":[3.0934,49.8053]}},{"code":"02328","nom":"Fossoy","centre":{"type":"Point","coordinates":[3.4812,49.0417]}},{"code":"02329","nom":"Fourdrain","centre":{"type":"Point","coordinates":[3.4584,49.6174]}},{"code":"02330","nom":"Francilly-Selency","centre":{"type":"Point","coordinates":[3.2283,49.8571]}},{"code":"02331","nom":"Franqueville","centre":{"type":"Point","coordinates":[3.7976,49.8169]}},{"code":"02332","nom":"Fresnes-en-Tardenois","centre":{"type":"Point","coordinates":[3.554,49.1478]}},{"code":"02333","nom":"Fresnes-sous-Coucy","centre":{"type":"Point","coordinates":[3.3622,49.5571]}},{"code":"02334","nom":"Fresnoy-le-Grand","centre":{"type":"Point","coordinates":[3.4182,49.952]}},{"code":"02335","nom":"Fressancourt","centre":{"type":"Point","coordinates":[3.426,49.6299]}},{"code":"02336","nom":"Frières-Faillouël","centre":{"type":"Point","coordinates":[3.2379,49.6797]}},{"code":"02337","nom":"Froidestrées","centre":{"type":"Point","coordinates":[3.9077,49.9451]}},{"code":"02338","nom":"Froidmont-Cohartille","centre":{"type":"Point","coordinates":[3.716,49.6856]}},{"code":"02339","nom":"Gandelu","centre":{"type":"Point","coordinates":[3.1835,49.0855]}},{"code":"02340","nom":"Gauchy","centre":{"type":"Point","coordinates":[3.2841,49.8252]}},{"code":"02341","nom":"Gercy","centre":{"type":"Point","coordinates":[3.8708,49.8149]}},{"code":"02342","nom":"Gergny","centre":{"type":"Point","coordinates":[3.9291,49.9277]}},{"code":"02343","nom":"Germaine","centre":{"type":"Point","coordinates":[3.117,49.8146]}},{"code":"02345","nom":"Gibercourt","centre":{"type":"Point","coordinates":[3.2863,49.7372]}},{"code":"02346","nom":"Gizy","centre":{"type":"Point","coordinates":[3.7673,49.6101]}},{"code":"02347","nom":"Gland","centre":{"type":"Point","coordinates":[3.4612,49.058]}},{"code":"02349","nom":"Goudelancourt-lès-Berrieux","centre":{"type":"Point","coordinates":[3.8516,49.4974]}},{"code":"02350","nom":"Goudelancourt-lès-Pierrepont","centre":{"type":"Point","coordinates":[3.851,49.6839]}},{"code":"02351","nom":"Goussancourt","centre":{"type":"Point","coordinates":[3.6539,49.1601]}},{"code":"02352","nom":"Gouy","centre":{"type":"Point","coordinates":[3.2604,49.9954]}},{"code":"02353","nom":"Grandlup-et-Fay","centre":{"type":"Point","coordinates":[3.7416,49.6563]}},{"code":"02354","nom":"Grandrieux","centre":{"type":"Point","coordinates":[4.1898,49.7271]}},{"code":"02355","nom":"Gricourt","centre":{"type":"Point","coordinates":[3.2399,49.8871]}},{"code":"02356","nom":"Grisolles","centre":{"type":"Point","coordinates":[3.3736,49.1296]}},{"code":"02357","nom":"Gronard","centre":{"type":"Point","coordinates":[3.8792,49.7925]}},{"code":"02358","nom":"Grougis","centre":{"type":"Point","coordinates":[3.5319,49.9506]}},{"code":"02359","nom":"Grugies","centre":{"type":"Point","coordinates":[3.2763,49.8122]}},{"code":"02360","nom":"Villeneuve-sur-Aisne","centre":{"type":"Point","coordinates":[3.9822,49.4358]}},{"code":"02361","nom":"Guise","centre":{"type":"Point","coordinates":[3.6287,49.8975]}},{"code":"02362","nom":"Guivry","centre":{"type":"Point","coordinates":[3.1189,49.6511]}},{"code":"02363","nom":"Guny","centre":{"type":"Point","coordinates":[3.266,49.519]}},{"code":"02364","nom":"Guyencourt","centre":{"type":"Point","coordinates":[3.8441,49.3589]}},{"code":"02366","nom":"Hannapes","centre":{"type":"Point","coordinates":[3.6179,49.9778]}},{"code":"02367","nom":"Happencourt","centre":{"type":"Point","coordinates":[3.1837,49.7755]}},{"code":"02368","nom":"Haramont","centre":{"type":"Point","coordinates":[3.0122,49.2891]}},{"code":"02369","nom":"Harcigny","centre":{"type":"Point","coordinates":[3.9778,49.8038]}},{"code":"02370","nom":"Hargicourt","centre":{"type":"Point","coordinates":[3.1882,49.9653]}},{"code":"02371","nom":"Harly","centre":{"type":"Point","coordinates":[3.335,49.842]}},{"code":"02372","nom":"Hartennes-et-Taux","centre":{"type":"Point","coordinates":[3.3602,49.2828]}},{"code":"02373","nom":"Hary","centre":{"type":"Point","coordinates":[3.9079,49.8055]}},{"code":"02374","nom":"Lehaucourt","centre":{"type":"Point","coordinates":[3.2778,49.9105]}},{"code":"02375","nom":"Hautevesnes","centre":{"type":"Point","coordinates":[3.2346,49.1076]}},{"code":"02376","nom":"Hauteville","centre":{"type":"Point","coordinates":[3.527,49.8864]}},{"code":"02377","nom":"Haution","centre":{"type":"Point","coordinates":[3.8302,49.8753]}},{"code":"02378","nom":"La Hérie","centre":{"type":"Point","coordinates":[4.0419,49.881]}},{"code":"02379","nom":"Le Hérie-la-Viéville","centre":{"type":"Point","coordinates":[3.6542,49.8241]}},{"code":"02380","nom":"Hinacourt","centre":{"type":"Point","coordinates":[3.2966,49.7447]}},{"code":"02381","nom":"Hirson","centre":{"type":"Point","coordinates":[4.1029,49.9482]}},{"code":"02382","nom":"Holnon","centre":{"type":"Point","coordinates":[3.1974,49.8624]}},{"code":"02383","nom":"Homblières","centre":{"type":"Point","coordinates":[3.3747,49.8541]}},{"code":"02384","nom":"Houry","centre":{"type":"Point","coordinates":[3.8542,49.7842]}},{"code":"02385","nom":"Housset","centre":{"type":"Point","coordinates":[3.6952,49.7944]}},{"code":"02386","nom":"Iron","centre":{"type":"Point","coordinates":[3.6614,49.9548]}},{"code":"02387","nom":"Itancourt","centre":{"type":"Point","coordinates":[3.351,49.8061]}},{"code":"02388","nom":"Iviers","centre":{"type":"Point","coordinates":[4.139,49.7872]}},{"code":"02389","nom":"Jaulgonne","centre":{"type":"Point","coordinates":[3.5341,49.091]}},{"code":"02390","nom":"Jeancourt","centre":{"type":"Point","coordinates":[3.1463,49.9273]}},{"code":"02391","nom":"Jeantes","centre":{"type":"Point","coordinates":[4.0706,49.8157]}},{"code":"02392","nom":"Joncourt","centre":{"type":"Point","coordinates":[3.3081,49.9634]}},{"code":"02393","nom":"Jouaignes","centre":{"type":"Point","coordinates":[3.5296,49.2982]}},{"code":"02395","nom":"Jumencourt","centre":{"type":"Point","coordinates":[3.349,49.5118]}},{"code":"02396","nom":"Jumigny","centre":{"type":"Point","coordinates":[3.7252,49.4078]}},{"code":"02397","nom":"Jussy","centre":{"type":"Point","coordinates":[3.2366,49.7183]}},{"code":"02398","nom":"Juvigny","centre":{"type":"Point","coordinates":[3.3157,49.4482]}},{"code":"02399","nom":"Juvincourt-et-Damary","centre":{"type":"Point","coordinates":[3.8968,49.4378]}},{"code":"02400","nom":"Laffaux","centre":{"type":"Point","coordinates":[3.4337,49.4498]}},{"code":"02401","nom":"Laigny","centre":{"type":"Point","coordinates":[3.8583,49.8618]}},{"code":"02402","nom":"Lanchy","centre":{"type":"Point","coordinates":[3.077,49.8305]}},{"code":"02403","nom":"Landifay-et-Bertaignemont","centre":{"type":"Point","coordinates":[3.6062,49.8258]}},{"code":"02404","nom":"Landouzy-la-Cour","centre":{"type":"Point","coordinates":[3.9869,49.8404]}},{"code":"02405","nom":"Landouzy-la-Ville","centre":{"type":"Point","coordinates":[4.0593,49.8602]}},{"code":"02406","nom":"Landricourt","centre":{"type":"Point","coordinates":[3.3707,49.5054]}},{"code":"02407","nom":"Laniscourt","centre":{"type":"Point","coordinates":[3.538,49.5459]}},{"code":"02408","nom":"Laon","centre":{"type":"Point","coordinates":[3.6184,49.5723]}},{"code":"02409","nom":"Lappion","centre":{"type":"Point","coordinates":[3.9666,49.5973]}},{"code":"02410","nom":"Largny-sur-Automne","centre":{"type":"Point","coordinates":[3.0504,49.2585]}},{"code":"02411","nom":"Latilly","centre":{"type":"Point","coordinates":[3.3136,49.163]}},{"code":"02412","nom":"Launoy","centre":{"type":"Point","coordinates":[3.3996,49.2662]}},{"code":"02413","nom":"Laval-en-Laonnois","centre":{"type":"Point","coordinates":[3.5879,49.5027]}},{"code":"02414","nom":"Lavaqueresse","centre":{"type":"Point","coordinates":[3.7197,49.9487]}},{"code":"02415","nom":"Laversine","centre":{"type":"Point","coordinates":[3.1624,49.3519]}},{"code":"02416","nom":"Lemé","centre":{"type":"Point","coordinates":[3.7594,49.8431]}},{"code":"02417","nom":"Lempire","centre":{"type":"Point","coordinates":[3.1731,49.9938]}},{"code":"02418","nom":"Lerzy","centre":{"type":"Point","coordinates":[3.8787,49.9514]}},{"code":"02419","nom":"Leschelle","centre":{"type":"Point","coordinates":[3.7788,49.9614]}},{"code":"02420","nom":"Lesdins","centre":{"type":"Point","coordinates":[3.317,49.9017]}},{"code":"02421","nom":"Lesges","centre":{"type":"Point","coordinates":[3.5095,49.3089]}},{"code":"02422","nom":"Lesquielles-Saint-Germain","centre":{"type":"Point","coordinates":[3.6242,49.9275]}},{"code":"02423","nom":"Leuilly-sous-Coucy","centre":{"type":"Point","coordinates":[3.349,49.4777]}},{"code":"02424","nom":"Leury","centre":{"type":"Point","coordinates":[3.3404,49.4249]}},{"code":"02425","nom":"Leuze","centre":{"type":"Point","coordinates":[4.1687,49.8573]}},{"code":"02426","nom":"Levergies","centre":{"type":"Point","coordinates":[3.3135,49.9399]}},{"code":"02427","nom":"Lhuys","centre":{"type":"Point","coordinates":[3.5455,49.2714]}},{"code":"02428","nom":"Licy-Clignon","centre":{"type":"Point","coordinates":[3.2675,49.099]}},{"code":"02429","nom":"Lierval","centre":{"type":"Point","coordinates":[3.6252,49.4865]}},{"code":"02430","nom":"Liesse-Notre-Dame","centre":{"type":"Point","coordinates":[3.8255,49.6106]}},{"code":"02431","nom":"Liez","centre":{"type":"Point","coordinates":[3.2968,49.6934]}},{"code":"02432","nom":"Limé","centre":{"type":"Point","coordinates":[3.5588,49.3264]}},{"code":"02433","nom":"Lislet","centre":{"type":"Point","coordinates":[4.026,49.6791]}},{"code":"02435","nom":"Logny-lès-Aubenton","centre":{"type":"Point","coordinates":[4.2202,49.8294]}},{"code":"02438","nom":"Longpont","centre":{"type":"Point","coordinates":[3.2215,49.2777]}},{"code":"02439","nom":"Les Septvallons","centre":{"type":"Point","coordinates":[3.6801,49.3557]}},{"code":"02440","nom":"Lor","centre":{"type":"Point","coordinates":[4.0603,49.531]}},{"code":"02441","nom":"Louâtre","centre":{"type":"Point","coordinates":[3.2353,49.2554]}},{"code":"02442","nom":"Loupeigne","centre":{"type":"Point","coordinates":[3.5287,49.2484]}},{"code":"02443","nom":"Lucy-le-Bocage","centre":{"type":"Point","coordinates":[3.277,49.056]}},{"code":"02444","nom":"Lugny","centre":{"type":"Point","coordinates":[3.8119,49.7771]}},{"code":"02445","nom":"Luzoir","centre":{"type":"Point","coordinates":[3.9622,49.933]}},{"code":"02446","nom":"Ly-Fontaine","centre":{"type":"Point","coordinates":[3.31,49.7345]}},{"code":"02447","nom":"Maast-et-Violaine","centre":{"type":"Point","coordinates":[3.4539,49.2925]}},{"code":"02448","nom":"Mâchecourt","centre":{"type":"Point","coordinates":[3.8283,49.6454]}},{"code":"02449","nom":"Macogny","centre":{"type":"Point","coordinates":[3.2147,49.1562]}},{"code":"02450","nom":"Macquigny","centre":{"type":"Point","coordinates":[3.5626,49.8797]}},{"code":"02451","nom":"Magny-la-Fosse","centre":{"type":"Point","coordinates":[3.2757,49.9351]}},{"code":"02452","nom":"Maissemy","centre":{"type":"Point","coordinates":[3.1843,49.8949]}},{"code":"02453","nom":"Maizy","centre":{"type":"Point","coordinates":[3.7166,49.3797]}},{"code":"02454","nom":"La Malmaison","centre":{"type":"Point","coordinates":[3.9916,49.524]}},{"code":"02455","nom":"Malzy","centre":{"type":"Point","coordinates":[3.7362,49.9159]}},{"code":"02456","nom":"Manicamp","centre":{"type":"Point","coordinates":[3.1755,49.5663]}},{"code":"02457","nom":"Marchais","centre":{"type":"Point","coordinates":[3.82,49.5859]}},{"code":"02458","nom":"Dhuys et Morin-en-Brie","centre":{"type":"Point","coordinates":[3.4935,48.8918]}},{"code":"02459","nom":"Marcy","centre":{"type":"Point","coordinates":[3.4164,49.8533]}},{"code":"02460","nom":"Marcy-sous-Marle","centre":{"type":"Point","coordinates":[3.7336,49.7462]}},{"code":"02461","nom":"Marest-Dampcourt","centre":{"type":"Point","coordinates":[3.1563,49.5886]}},{"code":"02462","nom":"Mareuil-en-Dôle","centre":{"type":"Point","coordinates":[3.5583,49.2477]}},{"code":"02463","nom":"Marfontaine","centre":{"type":"Point","coordinates":[3.7668,49.811]}},{"code":"02464","nom":"Margival","centre":{"type":"Point","coordinates":[3.4028,49.4353]}},{"code":"02465","nom":"Marigny-en-Orxois","centre":{"type":"Point","coordinates":[3.2147,49.06]}},{"code":"02466","nom":"Marizy-Sainte-Geneviève","centre":{"type":"Point","coordinates":[3.1985,49.1866]}},{"code":"02467","nom":"Marizy-Saint-Mard","centre":{"type":"Point","coordinates":[3.2296,49.1848]}},{"code":"02468","nom":"Marle","centre":{"type":"Point","coordinates":[3.7682,49.745]}},{"code":"02469","nom":"Marly-Gomont","centre":{"type":"Point","coordinates":[3.7823,49.9013]}},{"code":"02470","nom":"Martigny","centre":{"type":"Point","coordinates":[4.141,49.8709]}},{"code":"02471","nom":"Martigny-Courpierre","centre":{"type":"Point","coordinates":[3.6849,49.4915]}},{"code":"02472","nom":"Mauregny-en-Haye","centre":{"type":"Point","coordinates":[3.7969,49.5361]}},{"code":"02473","nom":"Mayot","centre":{"type":"Point","coordinates":[3.3932,49.7083]}},{"code":"02474","nom":"Mennessis","centre":{"type":"Point","coordinates":[3.2776,49.6917]}},{"code":"02476","nom":"Mennevret","centre":{"type":"Point","coordinates":[3.5613,49.9913]}},{"code":"02477","nom":"Mercin-et-Vaux","centre":{"type":"Point","coordinates":[3.2738,49.3677]}},{"code":"02478","nom":"Merlieux-et-Fouquerolles","centre":{"type":"Point","coordinates":[3.4971,49.5116]}},{"code":"02480","nom":"Mesbrecourt-Richecourt","centre":{"type":"Point","coordinates":[3.537,49.7084]}},{"code":"02481","nom":"Mesnil-Saint-Laurent","centre":{"type":"Point","coordinates":[3.365,49.8306]}},{"code":"02482","nom":"Meurival","centre":{"type":"Point","coordinates":[3.7591,49.3584]}},{"code":"02483","nom":"Mézières-sur-Oise","centre":{"type":"Point","coordinates":[3.3913,49.7883]}},{"code":"02484","nom":"Mézy-Moulins","centre":{"type":"Point","coordinates":[3.513,49.0663]}},{"code":"02485","nom":"Missy-aux-Bois","centre":{"type":"Point","coordinates":[3.2451,49.3401]}},{"code":"02486","nom":"Missy-lès-Pierrepont","centre":{"type":"Point","coordinates":[3.78,49.6254]}},{"code":"02487","nom":"Missy-sur-Aisne","centre":{"type":"Point","coordinates":[3.4365,49.3847]}},{"code":"02488","nom":"Molain","centre":{"type":"Point","coordinates":[3.5301,50.0328]}},{"code":"02489","nom":"Molinchart","centre":{"type":"Point","coordinates":[3.538,49.5631]}},{"code":"02490","nom":"Monampteuil","centre":{"type":"Point","coordinates":[3.5748,49.4724]}},{"code":"02491","nom":"Monceau-le-Neuf-et-Faucouzy","centre":{"type":"Point","coordinates":[3.6333,49.7841]}},{"code":"02492","nom":"Monceau-lès-Leups","centre":{"type":"Point","coordinates":[3.4813,49.6587]}},{"code":"02493","nom":"Monceau-le-Waast","centre":{"type":"Point","coordinates":[3.7169,49.6233]}},{"code":"02494","nom":"Monceau-sur-Oise","centre":{"type":"Point","coordinates":[3.6981,49.9067]}},{"code":"02495","nom":"Mondrepuis","centre":{"type":"Point","coordinates":[4.0629,49.9628]}},{"code":"02496","nom":"Monnes","centre":{"type":"Point","coordinates":[3.2278,49.1399]}},{"code":"02497","nom":"Mons-en-Laonnois","centre":{"type":"Point","coordinates":[3.5522,49.5371]}},{"code":"02498","nom":"Montaigu","centre":{"type":"Point","coordinates":[3.8364,49.5468]}},{"code":"02499","nom":"Montbavin","centre":{"type":"Point","coordinates":[3.5135,49.5257]}},{"code":"02500","nom":"Montbrehain","centre":{"type":"Point","coordinates":[3.3543,49.9634]}},{"code":"02501","nom":"Montchâlons","centre":{"type":"Point","coordinates":[3.7236,49.5164]}},{"code":"02502","nom":"Montcornet","centre":{"type":"Point","coordinates":[4.0304,49.6882]}},{"code":"02503","nom":"Mont-d'Origny","centre":{"type":"Point","coordinates":[3.5172,49.8537]}},{"code":"02504","nom":"Montescourt-Lizerolles","centre":{"type":"Point","coordinates":[3.2587,49.7352]}},{"code":"02505","nom":"Montfaucon","centre":{"type":"Point","coordinates":[3.4274,48.9473]}},{"code":"02506","nom":"Montgobert","centre":{"type":"Point","coordinates":[3.176,49.2893]}},{"code":"02507","nom":"Montgru-Saint-Hilaire","centre":{"type":"Point","coordinates":[3.3265,49.1804]}},{"code":"02508","nom":"Monthenault","centre":{"type":"Point","coordinates":[3.6556,49.49]}},{"code":"02509","nom":"Monthiers","centre":{"type":"Point","coordinates":[3.2962,49.1041]}},{"code":"02510","nom":"Monthurel","centre":{"type":"Point","coordinates":[3.5456,49.0251]}},{"code":"02511","nom":"Montigny-en-Arrouaise","centre":{"type":"Point","coordinates":[3.4862,49.913]}},{"code":"02512","nom":"Montigny-l'Allier","centre":{"type":"Point","coordinates":[3.1002,49.1184]}},{"code":"02513","nom":"Montigny-le-Franc","centre":{"type":"Point","coordinates":[3.9107,49.687]}},{"code":"02514","nom":"Montigny-Lengrain","centre":{"type":"Point","coordinates":[3.0965,49.3817]}},{"code":"02515","nom":"Montigny-lès-Condé","centre":{"type":"Point","coordinates":[3.5693,48.9816]}},{"code":"02516","nom":"Montigny-sous-Marle","centre":{"type":"Point","coordinates":[3.8064,49.7427]}},{"code":"02517","nom":"Montigny-sur-Crécy","centre":{"type":"Point","coordinates":[3.5804,49.7118]}},{"code":"02518","nom":"Montlevon","centre":{"type":"Point","coordinates":[3.5196,48.9629]}},{"code":"02519","nom":"Montloué","centre":{"type":"Point","coordinates":[4.0629,49.6679]}},{"code":"02520","nom":"Mont-Notre-Dame","centre":{"type":"Point","coordinates":[3.5809,49.3018]}},{"code":"02521","nom":"Montreuil-aux-Lions","centre":{"type":"Point","coordinates":[3.1908,49.0221]}},{"code":"02522","nom":"Mont-Saint-Jean","centre":{"type":"Point","coordinates":[4.2099,49.7943]}},{"code":"02523","nom":"Mont-Saint-Martin","centre":{"type":"Point","coordinates":[3.6456,49.2717]}},{"code":"02524","nom":"Mont-Saint-Père","centre":{"type":"Point","coordinates":[3.4874,49.0865]}},{"code":"02525","nom":"Morcourt","centre":{"type":"Point","coordinates":[3.335,49.8764]}},{"code":"02526","nom":"Morgny-en-Thiérache","centre":{"type":"Point","coordinates":[4.0763,49.7556]}},{"code":"02527","nom":"Morsain","centre":{"type":"Point","coordinates":[3.1855,49.4565]}},{"code":"02528","nom":"Mortefontaine","centre":{"type":"Point","coordinates":[3.0703,49.3321]}},{"code":"02529","nom":"Mortiers","centre":{"type":"Point","coordinates":[3.6649,49.6951]}},{"code":"02530","nom":"Moulins","centre":{"type":"Point","coordinates":[3.6796,49.418]}},{"code":"02531","nom":"Moussy-Verneuil","centre":{"type":"Point","coordinates":[3.6357,49.411]}},{"code":"02532","nom":"Moÿ-de-l'Aisne","centre":{"type":"Point","coordinates":[3.3567,49.748]}},{"code":"02533","nom":"Muret-et-Crouttes","centre":{"type":"Point","coordinates":[3.4385,49.2767]}},{"code":"02534","nom":"Muscourt","centre":{"type":"Point","coordinates":[3.7455,49.363]}},{"code":"02535","nom":"Nampcelles-la-Cour","centre":{"type":"Point","coordinates":[3.9927,49.7784]}},{"code":"02536","nom":"Nampteuil-sous-Muret","centre":{"type":"Point","coordinates":[3.4321,49.3014]}},{"code":"02537","nom":"Nanteuil-la-Fosse","centre":{"type":"Point","coordinates":[3.4482,49.4328]}},{"code":"02538","nom":"Nanteuil-Notre-Dame","centre":{"type":"Point","coordinates":[3.4107,49.1952]}},{"code":"02539","nom":"Nauroy","centre":{"type":"Point","coordinates":[3.257,49.9523]}},{"code":"02540","nom":"Nesles-la-Montagne","centre":{"type":"Point","coordinates":[3.4451,49.0029]}},{"code":"02541","nom":"Neufchâtel-sur-Aisne","centre":{"type":"Point","coordinates":[4.0259,49.4353]}},{"code":"02542","nom":"Neuflieux","centre":{"type":"Point","coordinates":[3.1607,49.618]}},{"code":"02543","nom":"Neuilly-Saint-Front","centre":{"type":"Point","coordinates":[3.2574,49.1656]}},{"code":"02544","nom":"Neuve-Maison","centre":{"type":"Point","coordinates":[4.0431,49.9323]}},{"code":"02545","nom":"La Neuville-Bosmont","centre":{"type":"Point","coordinates":[3.8296,49.7204]}},{"code":"02546","nom":"La Neuville-en-Beine","centre":{"type":"Point","coordinates":[3.1593,49.674]}},{"code":"02547","nom":"La Neuville-Housset","centre":{"type":"Point","coordinates":[3.7311,49.7889]}},{"code":"02548","nom":"La Neuville-lès-Dorengt","centre":{"type":"Point","coordinates":[3.6905,49.9818]}},{"code":"02549","nom":"Neuville-Saint-Amand","centre":{"type":"Point","coordinates":[3.3398,49.8192]}},{"code":"02550","nom":"Neuville-sur-Ailette","centre":{"type":"Point","coordinates":[3.692,49.469]}},{"code":"02551","nom":"Neuville-sur-Margival","centre":{"type":"Point","coordinates":[3.3977,49.4554]}},{"code":"02552","nom":"Neuvillette","centre":{"type":"Point","coordinates":[3.4748,49.8529]}},{"code":"02553","nom":"Nizy-le-Comte","centre":{"type":"Point","coordinates":[4.0438,49.5722]}},{"code":"02554","nom":"Nogentel","centre":{"type":"Point","coordinates":[3.4073,49.0122]}},{"code":"02555","nom":"Nogent-l'Artaud","centre":{"type":"Point","coordinates":[3.3361,48.9424]}},{"code":"02556","nom":"Noircourt","centre":{"type":"Point","coordinates":[4.0927,49.6717]}},{"code":"02557","nom":"Noroy-sur-Ourcq","centre":{"type":"Point","coordinates":[3.2041,49.2001]}},{"code":"02558","nom":"Le Nouvion-en-Thiérache","centre":{"type":"Point","coordinates":[3.8118,50.0116]}},{"code":"02559","nom":"Nouvion-et-Catillon","centre":{"type":"Point","coordinates":[3.4939,49.7024]}},{"code":"02560","nom":"Nouvion-le-Comte","centre":{"type":"Point","coordinates":[3.4622,49.7054]}},{"code":"02561","nom":"Nouvion-le-Vineux","centre":{"type":"Point","coordinates":[3.6034,49.5102]}},{"code":"02562","nom":"Nouvron-Vingré","centre":{"type":"Point","coordinates":[3.1864,49.44]}},{"code":"02563","nom":"Noyales","centre":{"type":"Point","coordinates":[3.5407,49.9024]}},{"code":"02564","nom":"Noyant-et-Aconin","centre":{"type":"Point","coordinates":[3.3332,49.3295]}},{"code":"02565","nom":"Œuilly","centre":{"type":"Point","coordinates":[3.6807,49.3945]}},{"code":"02566","nom":"Ognes","centre":{"type":"Point","coordinates":[3.1911,49.6122]}},{"code":"02567","nom":"Ohis","centre":{"type":"Point","coordinates":[4.0136,49.9278]}},{"code":"02568","nom":"Oigny-en-Valois","centre":{"type":"Point","coordinates":[3.1356,49.2075]}},{"code":"02569","nom":"Oisy","centre":{"type":"Point","coordinates":[3.6586,50.0233]}},{"code":"02570","nom":"Ollezy","centre":{"type":"Point","coordinates":[3.1496,49.7334]}},{"code":"02571","nom":"Omissy","centre":{"type":"Point","coordinates":[3.2973,49.8804]}},{"code":"02572","nom":"Orainville","centre":{"type":"Point","coordinates":[4.0158,49.3814]}},{"code":"02573","nom":"Orgeval","centre":{"type":"Point","coordinates":[3.6992,49.5041]}},{"code":"02574","nom":"Origny-en-Thiérache","centre":{"type":"Point","coordinates":[4.0143,49.8821]}},{"code":"02575","nom":"Origny-Sainte-Benoite","centre":{"type":"Point","coordinates":[3.5118,49.8291]}},{"code":"02576","nom":"Osly-Courtil","centre":{"type":"Point","coordinates":[3.2258,49.4043]}},{"code":"02577","nom":"Ostel","centre":{"type":"Point","coordinates":[3.5623,49.4252]}},{"code":"02578","nom":"Oulches-la-Vallée-Foulon","centre":{"type":"Point","coordinates":[3.746,49.4288]}},{"code":"02579","nom":"Oulchy-la-Ville","centre":{"type":"Point","coordinates":[3.3395,49.2047]}},{"code":"02580","nom":"Oulchy-le-Château","centre":{"type":"Point","coordinates":[3.3884,49.2037]}},{"code":"02581","nom":"Paars","centre":{"type":"Point","coordinates":[3.6007,49.3302]}},{"code":"02582","nom":"Paissy","centre":{"type":"Point","coordinates":[3.6916,49.4216]}},{"code":"02583","nom":"Pancy-Courtecon","centre":{"type":"Point","coordinates":[3.651,49.4685]}},{"code":"02584","nom":"Papleux","centre":{"type":"Point","coordinates":[3.8791,50.0162]}},{"code":"02585","nom":"Parcy-et-Tigny","centre":{"type":"Point","coordinates":[3.3279,49.2674]}},{"code":"02586","nom":"Parfondeval","centre":{"type":"Point","coordinates":[4.1592,49.7412]}},{"code":"02587","nom":"Parfondru","centre":{"type":"Point","coordinates":[3.706,49.5323]}},{"code":"02588","nom":"Pargnan","centre":{"type":"Point","coordinates":[3.7034,49.393]}},{"code":"02589","nom":"Pargny-Filain","centre":{"type":"Point","coordinates":[3.5409,49.4666]}},{"code":"02590","nom":"Pargny-la-Dhuys","centre":{"type":"Point","coordinates":[3.5651,48.9561]}},{"code":"02591","nom":"Pargny-les-Bois","centre":{"type":"Point","coordinates":[3.6181,49.7325]}},{"code":"02592","nom":"Parpeville","centre":{"type":"Point","coordinates":[3.5646,49.7947]}},{"code":"02593","nom":"Pasly","centre":{"type":"Point","coordinates":[3.2954,49.4032]}},{"code":"02594","nom":"Passy-en-Valois","centre":{"type":"Point","coordinates":[3.1814,49.1631]}},{"code":"02595","nom":"Passy-sur-Marne","centre":{"type":"Point","coordinates":[3.577,49.0667]}},{"code":"02596","nom":"Pavant","centre":{"type":"Point","coordinates":[3.2811,48.9532]}},{"code":"02598","nom":"Pernant","centre":{"type":"Point","coordinates":[3.2245,49.3812]}},{"code":"02599","nom":"Pierremande","centre":{"type":"Point","coordinates":[3.2511,49.5679]}},{"code":"02600","nom":"Pierrepont","centre":{"type":"Point","coordinates":[3.798,49.6496]}},{"code":"02601","nom":"Pignicourt","centre":{"type":"Point","coordinates":[4.0251,49.4125]}},{"code":"02602","nom":"Pinon","centre":{"type":"Point","coordinates":[3.4643,49.4941]}},{"code":"02604","nom":"Pithon","centre":{"type":"Point","coordinates":[3.1024,49.7563]}},{"code":"02605","nom":"Pleine-Selve","centre":{"type":"Point","coordinates":[3.5245,49.795]}},{"code":"02606","nom":"Le Plessier-Huleu","centre":{"type":"Point","coordinates":[3.3467,49.2399]}},{"code":"02607","nom":"Ploisy","centre":{"type":"Point","coordinates":[3.2834,49.3309]}},{"code":"02608","nom":"Plomion","centre":{"type":"Point","coordinates":[4.0202,49.8159]}},{"code":"02609","nom":"Ployart-et-Vaurseine","centre":{"type":"Point","coordinates":[3.7399,49.4956]}},{"code":"02610","nom":"Pommiers","centre":{"type":"Point","coordinates":[3.2799,49.3969]}},{"code":"02612","nom":"Pont-Arcy","centre":{"type":"Point","coordinates":[3.6222,49.3912]}},{"code":"02613","nom":"Pontavert","centre":{"type":"Point","coordinates":[3.826,49.4148]}},{"code":"02614","nom":"Pontru","centre":{"type":"Point","coordinates":[3.1992,49.921]}},{"code":"02615","nom":"Pontruet","centre":{"type":"Point","coordinates":[3.2303,49.9164]}},{"code":"02616","nom":"Pont-Saint-Mard","centre":{"type":"Point","coordinates":[3.2841,49.4994]}},{"code":"02617","nom":"Pouilly-sur-Serre","centre":{"type":"Point","coordinates":[3.5852,49.6859]}},{"code":"02618","nom":"Prémont","centre":{"type":"Point","coordinates":[3.3897,50.0107]}},{"code":"02619","nom":"Prémontré","centre":{"type":"Point","coordinates":[3.4204,49.5475]}},{"code":"02620","nom":"Presles-et-Boves","centre":{"type":"Point","coordinates":[3.5429,49.3962]}},{"code":"02621","nom":"Presles-et-Thierny","centre":{"type":"Point","coordinates":[3.6206,49.5164]}},{"code":"02622","nom":"Priez","centre":{"type":"Point","coordinates":[3.26,49.1363]}},{"code":"02623","nom":"Prisces","centre":{"type":"Point","coordinates":[3.862,49.7755]}},{"code":"02624","nom":"Proisy","centre":{"type":"Point","coordinates":[3.7516,49.8941]}},{"code":"02625","nom":"Proix","centre":{"type":"Point","coordinates":[3.575,49.9027]}},{"code":"02626","nom":"Prouvais","centre":{"type":"Point","coordinates":[3.9735,49.4671]}},{"code":"02627","nom":"Proviseux-et-Plesnoy","centre":{"type":"Point","coordinates":[4.0154,49.4673]}},{"code":"02628","nom":"Puiseux-en-Retz","centre":{"type":"Point","coordinates":[3.1323,49.2951]}},{"code":"02629","nom":"Puisieux-et-Clanlieu","centre":{"type":"Point","coordinates":[3.6595,49.8451]}},{"code":"02631","nom":"Quierzy","centre":{"type":"Point","coordinates":[3.1463,49.5645]}},{"code":"02632","nom":"Quincy-Basse","centre":{"type":"Point","coordinates":[3.3833,49.5082]}},{"code":"02633","nom":"Quincy-sous-le-Mont","centre":{"type":"Point","coordinates":[3.5633,49.3103]}},{"code":"02634","nom":"Raillimont","centre":{"type":"Point","coordinates":[4.1577,49.7051]}},{"code":"02635","nom":"Ramicourt","centre":{"type":"Point","coordinates":[3.3334,49.9597]}},{"code":"02636","nom":"Regny","centre":{"type":"Point","coordinates":[3.4192,49.8323]}},{"code":"02637","nom":"Remaucourt","centre":{"type":"Point","coordinates":[3.3507,49.8963]}},{"code":"02638","nom":"Remies","centre":{"type":"Point","coordinates":[3.5241,49.6878]}},{"code":"02639","nom":"Remigny","centre":{"type":"Point","coordinates":[3.2936,49.7142]}},{"code":"02640","nom":"Renansart","centre":{"type":"Point","coordinates":[3.4495,49.7336]}},{"code":"02641","nom":"Renneval","centre":{"type":"Point","coordinates":[4.0355,49.7367]}},{"code":"02642","nom":"Résigny","centre":{"type":"Point","coordinates":[4.2122,49.7381]}},{"code":"02643","nom":"Ressons-le-Long","centre":{"type":"Point","coordinates":[3.1552,49.394]}},{"code":"02644","nom":"Retheuil","centre":{"type":"Point","coordinates":[3.0066,49.3179]}},{"code":"02645","nom":"Reuilly-Sauvigny","centre":{"type":"Point","coordinates":[3.5628,49.054]}},{"code":"02647","nom":"Ribeauville","centre":{"type":"Point","coordinates":[3.5907,50.0356]}},{"code":"02648","nom":"Ribemont","centre":{"type":"Point","coordinates":[3.4646,49.7917]}},{"code":"02649","nom":"Rocourt-Saint-Martin","centre":{"type":"Point","coordinates":[3.3897,49.1398]}},{"code":"02650","nom":"Rocquigny","centre":{"type":"Point","coordinates":[3.9683,50.0152]}},{"code":"02651","nom":"Rogécourt","centre":{"type":"Point","coordinates":[3.4187,49.6497]}},{"code":"02652","nom":"Rogny","centre":{"type":"Point","coordinates":[3.8196,49.7697]}},{"code":"02653","nom":"Romeny-sur-Marne","centre":{"type":"Point","coordinates":[3.3376,48.9821]}},{"code":"02654","nom":"Romery","centre":{"type":"Point","coordinates":[3.7328,49.8868]}},{"code":"02655","nom":"Ronchères","centre":{"type":"Point","coordinates":[3.6012,49.1425]}},{"code":"02656","nom":"Roucy","centre":{"type":"Point","coordinates":[3.8193,49.375]}},{"code":"02657","nom":"Rougeries","centre":{"type":"Point","coordinates":[3.7857,49.8072]}},{"code":"02658","nom":"Roupy","centre":{"type":"Point","coordinates":[3.1855,49.8125]}},{"code":"02659","nom":"Rouvroy","centre":{"type":"Point","coordinates":[3.3262,49.8582]}},{"code":"02660","nom":"Rouvroy-sur-Serre","centre":{"type":"Point","coordinates":[4.1758,49.7165]}},{"code":"02661","nom":"Royaucourt-et-Chailvet","centre":{"type":"Point","coordinates":[3.5367,49.5118]}},{"code":"02662","nom":"Rozet-Saint-Albin","centre":{"type":"Point","coordinates":[3.2902,49.1942]}},{"code":"02663","nom":"Rozières-sur-Crise","centre":{"type":"Point","coordinates":[3.3645,49.3211]}},{"code":"02664","nom":"Rozoy-Bellevalle","centre":{"type":"Point","coordinates":[3.4479,48.9247]}},{"code":"02665","nom":"Grand-Rozoy","centre":{"type":"Point","coordinates":[3.3816,49.2437]}},{"code":"02666","nom":"Rozoy-sur-Serre","centre":{"type":"Point","coordinates":[4.138,49.7078]}},{"code":"02667","nom":"Saconin-et-Breuil","centre":{"type":"Point","coordinates":[3.2383,49.3455]}},{"code":"02668","nom":"Sains-Richaumont","centre":{"type":"Point","coordinates":[3.705,49.8279]}},{"code":"02670","nom":"Saint-Algis","centre":{"type":"Point","coordinates":[3.827,49.8868]}},{"code":"02671","nom":"Saint-Aubin","centre":{"type":"Point","coordinates":[3.1899,49.5156]}},{"code":"02672","nom":"Saint-Bandry","centre":{"type":"Point","coordinates":[3.1604,49.3678]}},{"code":"02673","nom":"Saint-Christophe-à-Berry","centre":{"type":"Point","coordinates":[3.1348,49.4293]}},{"code":"02674","nom":"Saint-Clément","centre":{"type":"Point","coordinates":[4.0702,49.7753]}},{"code":"02675","nom":"Sainte-Croix","centre":{"type":"Point","coordinates":[3.7779,49.4793]}},{"code":"02676","nom":"Saint-Erme-Outre-et-Ramecourt","centre":{"type":"Point","coordinates":[3.8486,49.5185]}},{"code":"02677","nom":"Saint-Eugène","centre":{"type":"Point","coordinates":[3.5261,49.0183]}},{"code":"02678","nom":"Sainte-Geneviève","centre":{"type":"Point","coordinates":[4.0757,49.7239]}},{"code":"02679","nom":"Saint-Gengoulph","centre":{"type":"Point","coordinates":[3.2142,49.1185]}},{"code":"02680","nom":"Saint-Gobain","centre":{"type":"Point","coordinates":[3.3933,49.5977]}},{"code":"02681","nom":"Saint-Gobert","centre":{"type":"Point","coordinates":[3.8334,49.8061]}},{"code":"02682","nom":"Saint-Mard","centre":{"type":"Point","coordinates":[3.5866,49.3849]}},{"code":"02683","nom":"Saint-Martin-Rivière","centre":{"type":"Point","coordinates":[3.5496,50.0441]}},{"code":"02684","nom":"Saint-Michel","centre":{"type":"Point","coordinates":[4.1623,49.9225]}},{"code":"02685","nom":"Saint-Nicolas-aux-Bois","centre":{"type":"Point","coordinates":[3.4343,49.6005]}},{"code":"02686","nom":"Saint-Paul-aux-Bois","centre":{"type":"Point","coordinates":[3.2051,49.543]}},{"code":"02687","nom":"Saint-Pierre-Aigle","centre":{"type":"Point","coordinates":[3.1931,49.3159]}},{"code":"02688","nom":"Saint-Pierre-lès-Franqueville","centre":{"type":"Point","coordinates":[3.8144,49.825]}},{"code":"02689","nom":"Saint-Pierremont","centre":{"type":"Point","coordinates":[3.8786,49.7189]}},{"code":"02690","nom":"Sainte-Preuve","centre":{"type":"Point","coordinates":[3.9079,49.6151]}},{"code":"02691","nom":"Saint-Quentin","centre":{"type":"Point","coordinates":[3.2889,49.8457]}},{"code":"02693","nom":"Saint-Rémy-Blanzy","centre":{"type":"Point","coordinates":[3.3063,49.2485]}},{"code":"02694","nom":"Saint-Simon","centre":{"type":"Point","coordinates":[3.1756,49.7459]}},{"code":"02695","nom":"Saint-Thibaut","centre":{"type":"Point","coordinates":[3.6175,49.2925]}},{"code":"02696","nom":"Saint-Thomas","centre":{"type":"Point","coordinates":[3.8205,49.5007]}},